,EILName,Latitude,Longitude,Address,Zipcode,"School, District",DistrictName,CumulativeEnrollment,Latino%,Median family income (dollars),Mean family income (dollars),"Health insurance coverage, % of civilian pop",No health insurance for civilian pop,No health insurance coverage %,Worked at home,Population 16+,Children of the household 6-17,"Households with income $0-34,999","Households with income $35,000-99,999","Households with income $100,000+",Percent Increase,Absolute Increase Standardized,Cases,Population,WorkedAtHomeSTD,HouseholdsIncome0kto35kSTD,HouseholdsIncome35kto100kSTD,HouseholdsIncome100kPlusSTD,CasesSTD,predictions
0,High School,33.09058,-116.95009,"17701 San Pasqual Valley Road,Escondido,CA,92025",92025,"San Pasqual Academy, San Diego County Office of Education",San Diego County Office of Education,94.0,0.43617021276595747,59509.0,85640.0,79.6,10756.0,20.4,1310.0,40463.0,8965.0,4812.0,6688.0,3681.0,48.9,0.004942787237723352,609,49978,0.026211533074552804,0.27633038536956267,0.38406018648205215,0.21138240825963428,0.012185361559085998,0
1,Intermediate/Middle/Junior High,33.083711,-117.05634,"3003 Bear Valley Parkway,Escondido,CA,92025",92025,"Bear Valley Middle, Escondido Union",Escondido Union,1064.0,0.6372180451127819,59509.0,85640.0,79.6,10756.0,20.4,1310.0,40463.0,8965.0,4812.0,6688.0,3681.0,48.9,0.004942787237723352,609,49978,0.026211533074552804,0.27633038536956267,0.38406018648205215,0.21138240825963428,0.012185361559085998,0
2,Elementary,33.118835,-117.07991,"122 West Fourth Avenue,Escondido,CA,92025",92025,"Central Elementary, Escondido Union",Escondido Union,649.0,0.9275808936825886,59509.0,85640.0,79.6,10756.0,20.4,1310.0,40463.0,8965.0,4812.0,6688.0,3681.0,48.9,0.004942787237723352,609,49978,0.026211533074552804,0.27633038536956267,0.38406018648205215,0.21138240825963428,0.012185361559085998,0
3,Intermediate/Middle/Junior High,33.11037,-117.10117,"1400 West Ninth Avenue,Escondido,CA,92025",92025,"Del Dios Academy of Arts and Sciences, Escondido Union",Escondido Union,833.0,0.8679471788715486,59509.0,85640.0,79.6,10756.0,20.4,1310.0,40463.0,8965.0,4812.0,6688.0,3681.0,48.9,0.004942787237723352,609,49978,0.026211533074552804,0.27633038536956267,0.38406018648205215,0.21138240825963428,0.012185361559085998,0
4,Elementary,33.106493,-117.08245,"737 West 13th Avenue,Escondido,CA,92025",92025,"Felicita Elementary, Escondido Union",Escondido Union,574.0,0.9668989547038328,59509.0,85640.0,79.6,10756.0,20.4,1310.0,40463.0,8965.0,4812.0,6688.0,3681.0,48.9,0.004942787237723352,609,49978,0.026211533074552804,0.27633038536956267,0.38406018648205215,0.21138240825963428,0.012185361559085998,0
5,Elementary,33.105286,-117.06731,"1809 South Juniper Street,Escondido,CA,92025",92025,"Juniper Elementary, Escondido Union",Escondido Union,682.0,0.9120234604105572,59509.0,85640.0,79.6,10756.0,20.4,1310.0,40463.0,8965.0,4812.0,6688.0,3681.0,48.9,0.004942787237723352,609,49978,0.026211533074552804,0.27633038536956267,0.38406018648205215,0.21138240825963428,0.012185361559085998,0
6,Elementary,33.09646,-117.07896,"1975 Miller Avenue,Escondido,CA,92025",92025,"Miller Elementary, Escondido Union",Escondido Union,460.0,0.6086956521739131,59509.0,85640.0,79.6,10756.0,20.4,1310.0,40463.0,8965.0,4812.0,6688.0,3681.0,48.9,0.004942787237723352,609,49978,0.026211533074552804,0.27633038536956267,0.38406018648205215,0.21138240825963428,0.012185361559085998,0
7,Elementary,33.086003,-117.05973,"3115 Las Palmas Avenue,Escondido,CA,92025",92025,"L. R. Green Elementary, Escondido Union",Escondido Union,857.0,0.4515752625437573,59509.0,85640.0,79.6,10756.0,20.4,1310.0,40463.0,8965.0,4812.0,6688.0,3681.0,48.9,0.004942787237723352,609,49978,0.026211533074552804,0.27633038536956267,0.38406018648205215,0.21138240825963428,0.012185361559085998,0
8,High School,33.077688,-117.05724,"3300 Bear Valley Parkway,Escondido,CA,92025",92025,"San Pasqual High, Escondido Union High",Escondido Union High,2294.0,0.6578029642545772,59509.0,85640.0,79.6,10756.0,20.4,1310.0,40463.0,8965.0,4812.0,6688.0,3681.0,48.9,0.004942787237723352,609,49978,0.026211533074552804,0.27633038536956267,0.38406018648205215,0.21138240825963428,0.012185361559085998,0
9,Elementary,32.635041,-117.08832,"540 G Street,Chula Vista,CA,91910",91910,"Davila Day, San Diego County Office of Education",San Diego County Office of Education,34.0,0.6470588235294118,69198.0,84506.0,89.3,8046.0,10.7,1303.0,61455.0,10820.0,7681.0,11170.0,6524.0,31.97,0.00636237897648686,1614,75802,0.01718952006543363,0.29081646922244797,0.4229162818922984,0.24701036911954832,0.021292314186960766,0
10,Elementary,32.615057,-117.05726,"25 Emerson Street,Chula Vista,CA,91910",91910,"Castle Park Elementary, Chula Vista Elementary",Chula Vista Elementary,435.0,0.8873563218390804,69198.0,84506.0,89.3,8046.0,10.7,1303.0,61455.0,10820.0,7681.0,11170.0,6524.0,31.97,0.00636237897648686,1614,75802,0.01718952006543363,0.29081646922244797,0.4229162818922984,0.24701036911954832,0.021292314186960766,0
11,Elementary,32.634394,-117.04331,"475 East J Street,Chula Vista,CA,91910",91910,"Halecrest Elementary, Chula Vista Elementary",Chula Vista Elementary,507.0,0.7001972386587771,69198.0,84506.0,89.3,8046.0,10.7,1303.0,61455.0,10820.0,7681.0,11170.0,6524.0,31.97,0.00636237897648686,1614,75802,0.01718952006543363,0.29081646922244797,0.4229162818922984,0.24701036911954832,0.021292314186960766,0
12,Elementary,32.632209,-117.06414,"30 Murray Street,Chula Vista,CA,91910",91910,"Hilltop Drive Elementary, Chula Vista Elementary",Chula Vista Elementary,564.0,0.8209219858156028,69198.0,84506.0,89.3,8046.0,10.7,1303.0,61455.0,10820.0,7681.0,11170.0,6524.0,31.97,0.00636237897648686,1614,75802,0.01718952006543363,0.29081646922244797,0.4229162818922984,0.24701036911954832,0.021292314186960766,0
13,Elementary,32.635041,-117.08832,"540 G Street,Chula Vista,CA,91910",91910,"Vista Square Elementary, Chula Vista Elementary",Chula Vista Elementary,777.0,0.8751608751608752,69198.0,84506.0,89.3,8046.0,10.7,1303.0,61455.0,10820.0,7681.0,11170.0,6524.0,31.97,0.00636237897648686,1614,75802,0.01718952006543363,0.29081646922244797,0.4229162818922984,0.24701036911954832,0.021292314186960766,0
14,Elementary,32.636251,-117.00246,"980 Buena Vista Way,Chula Vista,CA,91910",91910,"Chula Vista Hills Elementary, Chula Vista Elementary",Chula Vista Elementary,575.0,0.6643478260869565,69198.0,84506.0,89.3,8046.0,10.7,1303.0,61455.0,10820.0,7681.0,11170.0,6524.0,31.97,0.00636237897648686,1614,75802,0.01718952006543363,0.29081646922244797,0.4229162818922984,0.24701036911954832,0.021292314186960766,0
15,Elementary,32.644805,-117.04506,"455 Windrose Way,Chula Vista,CA,91910",91910,"Clear View, Chula Vista Elementary",Chula Vista Elementary,541.0,0.6321626617375231,69198.0,84506.0,89.3,8046.0,10.7,1303.0,61455.0,10820.0,7681.0,11170.0,6524.0,31.97,0.00636237897648686,1614,75802,0.01718952006543363,0.29081646922244797,0.4229162818922984,0.24701036911954832,0.021292314186960766,0
16,Elementary,32.630446,-117.00915,"1130 East J Street,Chula Vista,CA,91910",91910,"Casillas (Joseph) Elementary, Chula Vista Elementary",Chula Vista Elementary,489.0,0.5357873210633947,69198.0,84506.0,89.3,8046.0,10.7,1303.0,61455.0,10820.0,7681.0,11170.0,6524.0,31.97,0.00636237897648686,1614,75802,0.01718952006543363,0.29081646922244797,0.4229162818922984,0.24701036911954832,0.021292314186960766,0
17,High School,32.636851,-117.0599,"555 Claire Avenue,Chula Vista,CA,91910",91910,"Hilltop Senior High, Sweetwater Union High",Sweetwater Union High,2224.0,0.8597122302158273,69198.0,84506.0,89.3,8046.0,10.7,1303.0,61455.0,10820.0,7681.0,11170.0,6524.0,31.97,0.00636237897648686,1614,75802,0.01718952006543363,0.29081646922244797,0.4229162818922984,0.24701036911954832,0.021292314186960766,0
18,Intermediate/Middle/Junior High,32.648596,-117.00527,"650 Otay Lakes Road,Chula Vista,CA,91910",91910,"Bonita Vista Middle, Sweetwater Union High",Sweetwater Union High,1249.0,0.6084867894315452,69198.0,84506.0,89.3,8046.0,10.7,1303.0,61455.0,10820.0,7681.0,11170.0,6524.0,31.97,0.00636237897648686,1614,75802,0.01718952006543363,0.29081646922244797,0.4229162818922984,0.24701036911954832,0.021292314186960766,0
19,Intermediate/Middle/Junior High,32.635067,-117.08645,"415 Fifth Avenue,Chula Vista,CA,91910",91910,"Chula Vista Middle, Sweetwater Union High",Sweetwater Union High,963.0,0.7871235721703012,69198.0,84506.0,89.3,8046.0,10.7,1303.0,61455.0,10820.0,7681.0,11170.0,6524.0,31.97,0.00636237897648686,1614,75802,0.01718952006543363,0.29081646922244797,0.4229162818922984,0.24701036911954832,0.021292314186960766,0
20,Intermediate/Middle/Junior High,32.630395,-117.06408,"44 East J Street,Chula Vista,CA,91910",91910,"Hilltop Middle, Sweetwater Union High",Sweetwater Union High,1071.0,0.7366946778711485,69198.0,84506.0,89.3,8046.0,10.7,1303.0,61455.0,10820.0,7681.0,11170.0,6524.0,31.97,0.00636237897648686,1614,75802,0.01718952006543363,0.29081646922244797,0.4229162818922984,0.24701036911954832,0.021292314186960766,0
21,Intermediate/Middle/Junior High,32.630868,-117.00764,"1174 East J Street,Chula Vista,CA,91910",91910,"Rancho del Rey Middle, Sweetwater Union High",Sweetwater Union High,1841.0,0.4416078218359587,69198.0,84506.0,89.3,8046.0,10.7,1303.0,61455.0,10820.0,7681.0,11170.0,6524.0,31.97,0.00636237897648686,1614,75802,0.01718952006543363,0.29081646922244797,0.4229162818922984,0.24701036911954832,0.021292314186960766,0
22,Elementary-High Combination,32.702375,-117.15045,"1625 Newton Avenue,San Diego,CA,92113",92113,"Monarch, San Diego County Office of Education",San Diego County Office of Education,333.0,0.7717717717717718,33842.0,43914.0,76.3,11784.0,23.7,2028.0,42375.0,10183.0,6831.0,5234.0,976.0,28.1,0.00759882005899705,1468,56066,0.036171654835372595,0.34967663111333075,0.26792672921200017,0.04996111725466414,0.026183426675703635,0
23,Elementary,32.69871,-117.09106,"4800 T Street,San Diego,CA,92113",92113,"Porter Elementary, San Diego Unified",San Diego Unified,936.0,0.7061965811965812,33842.0,43914.0,76.3,11784.0,23.7,2028.0,42375.0,10183.0,6831.0,5234.0,976.0,28.1,0.00759882005899705,1468,56066,0.036171654835372595,0.34967663111333075,0.26792672921200017,0.04996111725466414,0.026183426675703635,0
24,High School,32.704034,-117.09196,"4777 Imperial Avenue,San Diego,CA,92113",92113,"Lincoln High, San Diego Unified",San Diego Unified,1728.0,0.6903935185185185,33842.0,43914.0,76.3,11784.0,23.7,2028.0,42375.0,10183.0,6831.0,5234.0,976.0,28.1,0.00759882005899705,1468,56066,0.036171654835372595,0.34967663111333075,0.26792672921200017,0.04996111725466414,0.026183426675703635,0
25,Elementary,32.697615,-117.12725,"825 South 31st Street,San Diego,CA,92113",92113,"Rodriguez Elementary, San Diego Unified",San Diego Unified,514.0,0.896887159533074,33842.0,43914.0,76.3,11784.0,23.7,2028.0,42375.0,10183.0,6831.0,5234.0,976.0,28.1,0.00759882005899705,1468,56066,0.036171654835372595,0.34967663111333075,0.26792672921200017,0.04996111725466414,0.026183426675703635,0
26,Intermediate/Middle/Junior High,32.695466,-117.08946,"1098 South 49th Street,San Diego,CA,92113",92113,"Knox Middle, San Diego Unified",San Diego Unified,723.0,0.7717842323651453,33842.0,43914.0,76.3,11784.0,23.7,2028.0,42375.0,10183.0,6831.0,5234.0,976.0,28.1,0.00759882005899705,1468,56066,0.036171654835372595,0.34967663111333075,0.26792672921200017,0.04996111725466414,0.026183426675703635,0
27,Elementary,32.698826,-117.10711,"4041 T Street,San Diego,CA,92113",92113,"Baker Elementary, San Diego Unified",San Diego Unified,475.0,0.8315789473684211,33842.0,43914.0,76.3,11784.0,23.7,2028.0,42375.0,10183.0,6831.0,5234.0,976.0,28.1,0.00759882005899705,1468,56066,0.036171654835372595,0.34967663111333075,0.26792672921200017,0.04996111725466414,0.026183426675703635,0
28,Elementary,32.687014,-117.108,"1844 South 40th Street,San Diego,CA,92113",92113,"Balboa Elementary, San Diego Unified",San Diego Unified,546.0,0.847985347985348,33842.0,43914.0,76.3,11784.0,23.7,2028.0,42375.0,10183.0,6831.0,5234.0,976.0,28.1,0.00759882005899705,1468,56066,0.036171654835372595,0.34967663111333075,0.26792672921200017,0.04996111725466414,0.026183426675703635,0
29,Elementary,32.70044,-117.13891,"2146 Julian Avenue,San Diego,CA,92113",92113,"Burbank Elementary, San Diego Unified",San Diego Unified,555.0,0.9045045045045045,33842.0,43914.0,76.3,11784.0,23.7,2028.0,42375.0,10183.0,6831.0,5234.0,976.0,28.1,0.00759882005899705,1468,56066,0.036171654835372595,0.34967663111333075,0.26792672921200017,0.04996111725466414,0.026183426675703635,0
30,Elementary,32.700764,-117.14913,"1770 Main Street,San Diego,CA,92113",92113,"Perkins K-8, San Diego Unified",San Diego Unified,571.0,0.8038528896672504,33842.0,43914.0,76.3,11784.0,23.7,2028.0,42375.0,10183.0,6831.0,5234.0,976.0,28.1,0.00759882005899705,1468,56066,0.036171654835372595,0.34967663111333075,0.26792672921200017,0.04996111725466414,0.026183426675703635,0
31,Elementary,32.691605,-117.10807,"1404 South 40th Street,San Diego,CA,92113",92113,"Chavez Elementary, San Diego Unified",San Diego Unified,529.0,0.9206049149338374,33842.0,43914.0,76.3,11784.0,23.7,2028.0,42375.0,10183.0,6831.0,5234.0,976.0,28.1,0.00759882005899705,1468,56066,0.036171654835372595,0.34967663111333075,0.26792672921200017,0.04996111725466414,0.026183426675703635,0
32,Elementary-High Combination,32.769578,-117.17984,"6401 Linda Vista Road, Room 216,San Diego,CA,92111",92111,"San Diego County Community, San Diego County Office of Education",San Diego County Office of Education,1366.0,0.718887262079063,70293.0,88963.0,88.5,5584.0,11.5,1358.0,40536.0,6596.0,4866.0,7303.0,4788.0,34.55,0.0025656206828498125,405,45096,0.030113535568564838,0.3096820117083555,0.46477758559517474,0.30471793507184675,0.008980840872804683,2
33,Elementary-High Combination,32.769409,-117.1796,"6401 Linda Vista Road, Room 409,San Diego,CA,92111",92111,"San Diego County Special Education, San Diego County Office of Education",San Diego County Office of Education,41.0,0.7317073170731707,70293.0,88963.0,88.5,5584.0,11.5,1358.0,40536.0,6596.0,4866.0,7303.0,4788.0,34.55,0.0025656206828498125,405,45096,0.030113535568564838,0.3096820117083555,0.46477758559517474,0.30471793507184675,0.008980840872804683,2
34,High School,32.798708,-117.16044,"1954 Komet Way,San Diego,CA,92111",92111,"Kearny Digital Media & Design, San Diego Unified",San Diego Unified,405.0,0.5308641975308642,70293.0,88963.0,88.5,5584.0,11.5,1358.0,40536.0,6596.0,4866.0,7303.0,4788.0,34.55,0.0025656206828498125,405,45096,0.030113535568564838,0.3096820117083555,0.46477758559517474,0.30471793507184675,0.008980840872804683,2
35,High School,32.798708,-117.16044,"1954 Komet Way,San Diego,CA,92111",92111,"Kearny College Connections, San Diego Unified",San Diego Unified,410.0,0.5463414634146342,70293.0,88963.0,88.5,5584.0,11.5,1358.0,40536.0,6596.0,4866.0,7303.0,4788.0,34.55,0.0025656206828498125,405,45096,0.030113535568564838,0.3096820117083555,0.46477758559517474,0.30471793507184675,0.008980840872804683,2
36,High School,32.798708,-117.16044,"1954 Komet Way,San Diego,CA,92111",92111,"Kearny Eng Innov & Design, San Diego Unified",San Diego Unified,348.0,0.5862068965517241,70293.0,88963.0,88.5,5584.0,11.5,1358.0,40536.0,6596.0,4866.0,7303.0,4788.0,34.55,0.0025656206828498125,405,45096,0.030113535568564838,0.3096820117083555,0.46477758559517474,0.30471793507184675,0.008980840872804683,2
37,High School,32.803695,-117.16498,"7250 Mesa College Drive, Room L-502,San Diego,CA,92111",92111,"San Diego Metro Career and Tech, San Diego Unified",San Diego Unified,150.0,0.48,70293.0,88963.0,88.5,5584.0,11.5,1358.0,40536.0,6596.0,4866.0,7303.0,4788.0,34.55,0.0025656206828498125,405,45096,0.030113535568564838,0.3096820117083555,0.46477758559517474,0.30471793507184675,0.008980840872804683,2
38,High School,32.771471,-117.17933,"6402 Linda Vista Road,San Diego,CA,92111",92111,"Twain High, San Diego Unified",San Diego Unified,609.0,0.6124794745484401,70293.0,88963.0,88.5,5584.0,11.5,1358.0,40536.0,6596.0,4866.0,7303.0,4788.0,34.55,0.0025656206828498125,405,45096,0.030113535568564838,0.3096820117083555,0.46477758559517474,0.30471793507184675,0.008980840872804683,2
39,Elementary,32.776942,-117.17104,"6905 Kramer Street,San Diego,CA,92111",92111,"Carson Elementary, San Diego Unified",San Diego Unified,426.0,0.57981220657277,70293.0,88963.0,88.5,5584.0,11.5,1358.0,40536.0,6596.0,4866.0,7303.0,4788.0,34.55,0.0025656206828498125,405,45096,0.030113535568564838,0.3096820117083555,0.46477758559517474,0.30471793507184675,0.008980840872804683,2
40,Elementary,32.794045,-117.16209,"7335 Wheatley Street,San Diego,CA,92111",92111,"Chesterton Elementary, San Diego Unified",San Diego Unified,501.0,0.24151696606786427,70293.0,88963.0,88.5,5584.0,11.5,1358.0,40536.0,6596.0,4866.0,7303.0,4788.0,34.55,0.0025656206828498125,405,45096,0.030113535568564838,0.3096820117083555,0.46477758559517474,0.30471793507184675,0.008980840872804683,2
41,Elementary,32.810047,-117.18916,"4902 Mount Ararat Drive,San Diego,CA,92111",92111,"Holmes Elementary, San Diego Unified",San Diego Unified,587.0,0.20783645655877342,70293.0,88963.0,88.5,5584.0,11.5,1358.0,40536.0,6596.0,4866.0,7303.0,4788.0,34.55,0.0025656206828498125,405,45096,0.030113535568564838,0.3096820117083555,0.46477758559517474,0.30471793507184675,0.008980840872804683,2
42,Elementary,32.793449,-117.17314,"2772 Ulric Street,San Diego,CA,92111",92111,"Linda Vista Elementary, San Diego Unified",San Diego Unified,385.0,0.7532467532467533,70293.0,88963.0,88.5,5584.0,11.5,1358.0,40536.0,6596.0,4866.0,7303.0,4788.0,34.55,0.0025656206828498125,405,45096,0.030113535568564838,0.3096820117083555,0.46477758559517474,0.30471793507184675,0.008980840872804683,2
43,Elementary,32.819448,-117.17152,"4133 Mount Albertine Avenue,San Diego,CA,92111",92111,"Lindbergh/Schweitzer Elementary, San Diego Unified",San Diego Unified,359.0,0.2924791086350975,70293.0,88963.0,88.5,5584.0,11.5,1358.0,40536.0,6596.0,4866.0,7303.0,4788.0,34.55,0.0025656206828498125,405,45096,0.030113535568564838,0.3096820117083555,0.46477758559517474,0.30471793507184675,0.008980840872804683,2
44,Elementary-High Combination,32.809086,-117.17936,"5650 Mount Ackerly Drive,San Diego,CA,92111",92111,"Riley/New Dawn, San Diego Unified",San Diego Unified,247.0,0.4898785425101215,70293.0,88963.0,88.5,5584.0,11.5,1358.0,40536.0,6596.0,4866.0,7303.0,4788.0,34.55,0.0025656206828498125,405,45096,0.030113535568564838,0.3096820117083555,0.46477758559517474,0.30471793507184675,0.008980840872804683,2
45,Elementary,32.811323,-117.16124,"7470 Bagdad Street,San Diego,CA,92111",92111,"Ross Elementary, San Diego Unified",San Diego Unified,229.0,0.5109170305676856,70293.0,88963.0,88.5,5584.0,11.5,1358.0,40536.0,6596.0,4866.0,7303.0,4788.0,34.55,0.0025656206828498125,405,45096,0.030113535568564838,0.3096820117083555,0.46477758559517474,0.30471793507184675,0.008980840872804683,2
46,Intermediate/Middle/Junior High,32.788093,-117.17162,"2470 Ulric Street,San Diego,CA,92111",92111,"Montgomery Middle, San Diego Unified",San Diego Unified,508.0,0.5649606299212598,70293.0,88963.0,88.5,5584.0,11.5,1358.0,40536.0,6596.0,4866.0,7303.0,4788.0,34.55,0.0025656206828498125,405,45096,0.030113535568564838,0.3096820117083555,0.46477758559517474,0.30471793507184675,0.008980840872804683,2
47,High School,32.794147,-117.15396,"2801 Meadow Lark Drive,San Diego,CA,92123",92123,"San Diego County Court, San Diego County Office of Education",San Diego County Office of Education,1433.0,0.581297976273552,78598.0,98732.0,93.9,1786.0,6.1,863.0,25701.0,2740.0,2256.0,5222.0,4093.0,32.96,0.0022956305202132214,238,26823,0.03217388062483689,0.24138686947768706,0.5587421242963129,0.43794169183163706,0.008872982142191402,2
48,Elementary,32.804911,-117.14534,"8450 Hurlbut Street,San Diego,CA,92123",92123,"Angier Elementary, San Diego Unified",San Diego Unified,554.0,0.2815884476534296,78598.0,98732.0,93.9,1786.0,6.1,863.0,25701.0,2740.0,2256.0,5222.0,4093.0,32.96,0.0022956305202132214,238,26823,0.03217388062483689,0.24138686947768706,0.5587421242963129,0.43794169183163706,0.008872982142191402,2
49,Elementary,32.801667,-117.12714,"3201 Marathon Drive,San Diego,CA,92123",92123,"Cubberley Elementary, San Diego Unified",San Diego Unified,193.0,0.29015544041450775,78598.0,98732.0,93.9,1786.0,6.1,863.0,25701.0,2740.0,2256.0,5222.0,4093.0,32.96,0.0022956305202132214,238,26823,0.03217388062483689,0.24138686947768706,0.5587421242963129,0.43794169183163706,0.008872982142191402,2
50,Elementary,32.785778,-117.1585,"7666 Bobolink Way,San Diego,CA,92123",92123,"Fletcher Elementary, San Diego Unified",San Diego Unified,188.0,0.4574468085106383,78598.0,98732.0,93.9,1786.0,6.1,863.0,25701.0,2740.0,2256.0,5222.0,4093.0,32.96,0.0022956305202132214,238,26823,0.03217388062483689,0.24138686947768706,0.5587421242963129,0.43794169183163706,0.008872982142191402,2
51,Elementary,32.796255,-117.14242,"2751 Greyling Drive,San Diego,CA,92123",92123,"Jones Elementary, San Diego Unified",San Diego Unified,330.0,0.3212121212121212,78598.0,98732.0,93.9,1786.0,6.1,863.0,25701.0,2740.0,2256.0,5222.0,4093.0,32.96,0.0022956305202132214,238,26823,0.03217388062483689,0.24138686947768706,0.5587421242963129,0.43794169183163706,0.008872982142191402,2
52,Elementary,32.792242,-117.12589,"2633 Melbourne Drive,San Diego,CA,92123",92123,"Juarez Elementary, San Diego Unified",San Diego Unified,272.0,0.4411764705882353,78598.0,98732.0,93.9,1786.0,6.1,863.0,25701.0,2740.0,2256.0,5222.0,4093.0,32.96,0.0022956305202132214,238,26823,0.03217388062483689,0.24138686947768706,0.5587421242963129,0.43794169183163706,0.008872982142191402,2
53,Elementary,32.805607,-117.1365,"3443 Ediwhar Avenue,San Diego,CA,92123",92123,"Wegeforth Elementary, San Diego Unified",San Diego Unified,245.0,0.3877551020408163,78598.0,98732.0,93.9,1786.0,6.1,863.0,25701.0,2740.0,2256.0,5222.0,4093.0,32.96,0.0022956305202132214,238,26823,0.03217388062483689,0.24138686947768706,0.5587421242963129,0.43794169183163706,0.008872982142191402,2
54,Intermediate/Middle/Junior High,32.802346,-117.13113,"9191 Gramercy Drive,San Diego,CA,92123",92123,"Taft Middle, San Diego Unified",San Diego Unified,522.0,0.32950191570881227,78598.0,98732.0,93.9,1786.0,6.1,863.0,25701.0,2740.0,2256.0,5222.0,4093.0,32.96,0.0022956305202132214,238,26823,0.03217388062483689,0.24138686947768706,0.5587421242963129,0.43794169183163706,0.008872982142191402,2
55,Elementary-High Combination,33.142539,-117.16504,"255 Pico Avenue, Room 220,San Marcos,CA,92069",92069,"North Coastal Consortium Schools, San Diego County Office of Education",San Diego County Office of Education,115.0,0.4434782608695652,70828.0,90214.0,84.7,7567.0,15.3,1085.0,38302.0,7798.0,3631.0,6199.0,4616.0,44.17,0.004151219257480027,519,46369,0.023399253811813927,0.22474002027216458,0.38368586771334295,0.28570639867152625,0.011192822791088875,0
56,High School,33.147163,-117.14694,"1 Mission Hills Court,San Marcos,CA,92069",92069,"Mission Hills High, San Marcos Unified",San Marcos Unified,2704.0,0.5347633136094675,70828.0,90214.0,84.7,7567.0,15.3,1085.0,38302.0,7798.0,3631.0,6199.0,4616.0,44.17,0.004151219257480027,519,46369,0.023399253811813927,0.22474002027216458,0.38368586771334295,0.28570639867152625,0.011192822791088875,0
57,High School,33.179778,-117.1591,"158 Cassou Road,San Marcos,CA,92069",92069,"Twin Oaks High, San Marcos Unified",San Marcos Unified,268.0,0.7350746268656716,70828.0,90214.0,84.7,7567.0,15.3,1085.0,38302.0,7798.0,3631.0,6199.0,4616.0,44.17,0.004151219257480027,519,46369,0.023399253811813927,0.22474002027216458,0.38368586771334295,0.28570639867152625,0.011192822791088875,0
58,High School,33.180651,-117.15868,"158 Cassou Road,San Marcos,CA,92069",92069,"Foothills High, San Marcos Unified",San Marcos Unified,242.0,0.5041322314049587,70828.0,90214.0,84.7,7567.0,15.3,1085.0,38302.0,7798.0,3631.0,6199.0,4616.0,44.17,0.004151219257480027,519,46369,0.023399253811813927,0.22474002027216458,0.38368586771334295,0.28570639867152625,0.011192822791088875,0
59,Elementary,33.154751,-117.14016,"910 Borden Road,San Marcos,CA,92069",92069,"Richland Elementary, San Marcos Unified",San Marcos Unified,807.0,0.44114002478314746,70828.0,90214.0,84.7,7567.0,15.3,1085.0,38302.0,7798.0,3631.0,6199.0,4616.0,44.17,0.004151219257480027,519,46369,0.023399253811813927,0.22474002027216458,0.38368586771334295,0.28570639867152625,0.011192822791088875,0
60,Elementary,33.14128,-117.16829,"1 Tiger Way,San Marcos,CA,92069",92069,"San Marcos Elementary, San Marcos Unified",San Marcos Unified,813.0,0.956949569495695,70828.0,90214.0,84.7,7567.0,15.3,1085.0,38302.0,7798.0,3631.0,6199.0,4616.0,44.17,0.004151219257480027,519,46369,0.023399253811813927,0.22474002027216458,0.38368586771334295,0.28570639867152625,0.011192822791088875,0
61,Intermediate/Middle/Junior High,33.145673,-117.1749,"650 West Mission Road,San Marcos,CA,92069",92069,"San Marcos Middle, San Marcos Unified",San Marcos Unified,1178.0,0.7962648556876061,70828.0,90214.0,84.7,7567.0,15.3,1085.0,38302.0,7798.0,3631.0,6199.0,4616.0,44.17,0.004151219257480027,519,46369,0.023399253811813927,0.22474002027216458,0.38368586771334295,0.28570639867152625,0.011192822791088875,0
62,Intermediate/Middle/Junior High,33.147436,-117.12958,"1270 Rock Springs Road,San Marcos,CA,92069",92069,"Woodland Park Middle, San Marcos Unified",San Marcos Unified,1432.0,0.5083798882681564,70828.0,90214.0,84.7,7567.0,15.3,1085.0,38302.0,7798.0,3631.0,6199.0,4616.0,44.17,0.004151219257480027,519,46369,0.023399253811813927,0.22474002027216458,0.38368586771334295,0.28570639867152625,0.011192822791088875,0
63,Elementary,33.139633,-117.11971,"1825 Knob Hill Road,San Marcos,CA,92069",92069,"Knob Hill Elementary, San Marcos Unified",San Marcos Unified,867.0,0.45674740484429066,70828.0,90214.0,84.7,7567.0,15.3,1085.0,38302.0,7798.0,3631.0,6199.0,4616.0,44.17,0.004151219257480027,519,46369,0.023399253811813927,0.22474002027216458,0.38368586771334295,0.28570639867152625,0.011192822791088875,0
64,Elementary,33.159796,-117.18482,"660 Camino Magnifico,San Marcos,CA,92069",92069,"Paloma Elementary, San Marcos Unified",San Marcos Unified,897.0,0.39018952062430323,70828.0,90214.0,84.7,7567.0,15.3,1085.0,38302.0,7798.0,3631.0,6199.0,4616.0,44.17,0.004151219257480027,519,46369,0.023399253811813927,0.22474002027216458,0.38368586771334295,0.28570639867152625,0.011192822791088875,0
65,Elementary,33.178528,-117.15544,"1 Cassou Road,San Marcos,CA,92069",92069,"Twin Oaks Elementary, San Marcos Unified",San Marcos Unified,687.0,0.586608442503639,70828.0,90214.0,84.7,7567.0,15.3,1085.0,38302.0,7798.0,3631.0,6199.0,4616.0,44.17,0.004151219257480027,519,46369,0.023399253811813927,0.22474002027216458,0.38368586771334295,0.28570639867152625,0.011192822791088875,0
66,Intermediate/Middle/Junior High,32.825432,-116.77538,"2001 Tavern Road,Alpine,CA,91901",91901,"Joan MacQueen Middle, Alpine Union Elementary",Alpine Union Elementary,467.0,0.284796573875803,103026.0,116390.0,93.0,1265.0,7.0,788.0,14865.0,2459.0,1241.0,2264.0,2915.0,23.08,0.0012108980827447023,96,17403,0.04527954950295926,0.2046583922312245,0.3733655116933862,0.48072458771476184,0.005516290294776763,1
67,Elementary,32.8319,-116.81522,"8770 Harbison Canyon Road,Alpine,CA,91901",91901,"Shadow Hills Elementary, Alpine Union Elementary",Alpine Union Elementary,410.0,0.29024390243902437,103026.0,116390.0,93.0,1265.0,7.0,788.0,14865.0,2459.0,1241.0,2264.0,2915.0,23.08,0.0012108980827447023,96,17403,0.04527954950295926,0.2046583922312245,0.3733655116933862,0.48072458771476184,0.005516290294776763,1
68,Elementary,32.819163,-116.77617,"2320 Tavern Road,Alpine,CA,91901",91901,"Boulder Oaks Elementary, Alpine Union Elementary",Alpine Union Elementary,360.0,0.2111111111111111,103026.0,116390.0,93.0,1265.0,7.0,788.0,14865.0,2459.0,1241.0,2264.0,2915.0,23.08,0.0012108980827447023,96,17403,0.04527954950295926,0.2046583922312245,0.3733655116933862,0.48072458771476184,0.005516290294776763,1
69,Elementary,32.832208,-116.81507,"8770 Harbison Canyon Road,Alpine,CA,91901",91901,"Mountain View Learning Academy, Alpine Union Elementary",Alpine Union Elementary,82.0,0.2804878048780488,103026.0,116390.0,93.0,1265.0,7.0,788.0,14865.0,2459.0,1241.0,2264.0,2915.0,23.08,0.0012108980827447023,96,17403,0.04527954950295926,0.2046583922312245,0.3733655116933862,0.48072458771476184,0.005516290294776763,1
70,Elementary,32.832208,-116.81507,"8818 Harbison Canyon Road,Alpine,CA,91901",91901,"Creekside Early Learning Center, Alpine Union Elementary",Alpine Union Elementary,293.0,0.3174061433447099,103026.0,116390.0,93.0,1265.0,7.0,788.0,14865.0,2459.0,1241.0,2264.0,2915.0,23.08,0.0012108980827447023,96,17403,0.04527954950295926,0.2046583922312245,0.3733655116933862,0.48072458771476184,0.005516290294776763,1
71,High School,33.265514,-116.38373,"2281 Diegueno Road,Borrego Springs,CA,92004",92004,"Borrego Springs High, Borrego Springs Unified",Borrego Springs Unified,132.0,0.803030303030303,49451.0,56528.0,96.3,85.0,3.7,76.0,2111.0,150.0,569.0,561.0,95.0,6.25,0.0004737091425864519,17,3881,0.01958258180881216,0.420775573305849,0.4148595722751868,0.07025251223911363,0.004380314351971141,2
72,Elementary,33.256865,-116.34685,"1315 Palm Canyon Drive,Borrego Springs,CA,92004",92004,"Borrego Springs Elementary, Borrego Springs Unified",Borrego Springs Unified,194.0,0.8608247422680413,49451.0,56528.0,96.3,85.0,3.7,76.0,2111.0,150.0,569.0,561.0,95.0,6.25,0.0004737091425864519,17,3881,0.01958258180881216,0.420775573305849,0.4148595722751868,0.07025251223911363,0.004380314351971141,2
73,Intermediate/Middle/Junior High,33.264682,-116.38367,"2255 Diegueno Road,Borrego Springs,CA,92004",92004,"Borrego Springs Middle, Borrego Springs Unified",Borrego Springs Unified,94.0,0.8297872340425532,49451.0,56528.0,96.3,85.0,3.7,76.0,2111.0,150.0,569.0,561.0,95.0,6.25,0.0004737091425864519,17,3881,0.01958258180881216,0.420775573305849,0.4148595722751868,0.07025251223911363,0.004380314351971141,2
74,Intermediate/Middle/Junior High,32.858622,-116.81938,"9669 Dunbar Lane,El Cajon,CA,92021",92021,"Los Coches Creek Middle, Cajon Valley Union",Cajon Valley Union,836.0,0.30023923444976075,60193.0,77874.0,89.1,7675.0,10.9,1391.0,55155.0,11560.0,7324.0,9905.0,4971.0,28.22,0.003970628229534947,995,65068,0.02137763570418639,0.3230448146554374,0.43688679535255426,0.2192593901764308,0.015291694842318805,0
75,Elementary,32.807818,-116.93171,"1390 East Broadway,El Cajon,CA,92021",92021,"Bostonia Language Academy, Cajon Valley Union",Cajon Valley Union,625.0,0.7552,60193.0,77874.0,89.1,7675.0,10.9,1391.0,55155.0,11560.0,7324.0,9905.0,4971.0,28.22,0.003970628229534947,995,65068,0.02137763570418639,0.3230448146554374,0.43688679535255426,0.2192593901764308,0.015291694842318805,0
76,Elementary,32.805538,-116.86647,"2000 Suncrest Boulevard,El Cajon,CA,92021",92021,"Crest Elementary, Cajon Valley Union",Cajon Valley Union,119.0,0.23529411764705882,60193.0,77874.0,89.1,7675.0,10.9,1391.0,55155.0,11560.0,7324.0,9905.0,4971.0,28.22,0.003970628229534947,995,65068,0.02137763570418639,0.3230448146554374,0.43688679535255426,0.2192593901764308,0.015291694842318805,0
77,Intermediate/Middle/Junior High,32.811048,-116.92834,"1495 Greenfield Drive,El Cajon,CA,92021",92021,"Greenfield Middle, Cajon Valley Union",Cajon Valley Union,860.0,0.5,60193.0,77874.0,89.1,7675.0,10.9,1391.0,55155.0,11560.0,7324.0,9905.0,4971.0,28.22,0.003970628229534947,995,65068,0.02137763570418639,0.3230448146554374,0.43688679535255426,0.2192593901764308,0.015291694842318805,0
78,Elementary,32.813388,-116.95404,"650 Greenfield Drive,El Cajon,CA,92021",92021,"Magnolia Elementary, Cajon Valley Union",Cajon Valley Union,655.0,0.45038167938931295,60193.0,77874.0,89.1,7675.0,10.9,1391.0,55155.0,11560.0,7324.0,9905.0,4971.0,28.22,0.003970628229534947,995,65068,0.02137763570418639,0.3230448146554374,0.43688679535255426,0.2192593901764308,0.015291694842318805,0
79,Elementary,32.803995,-116.94638,"1030 Naranca Avenue,El Cajon,CA,92021",92021,"Naranca Elementary, Cajon Valley Union",Cajon Valley Union,930.0,0.3139784946236559,60193.0,77874.0,89.1,7675.0,10.9,1391.0,55155.0,11560.0,7324.0,9905.0,4971.0,28.22,0.003970628229534947,995,65068,0.02137763570418639,0.3230448146554374,0.43688679535255426,0.2192593901764308,0.015291694842318805,0
80,Elementary,32.840076,-116.87577,"14314 Rios Canyon Road,El Cajon,CA,92021",92021,"Rios Elementary, Cajon Valley Union",Cajon Valley Union,401.0,0.4114713216957606,60193.0,77874.0,89.1,7675.0,10.9,1391.0,55155.0,11560.0,7324.0,9905.0,4971.0,28.22,0.003970628229534947,995,65068,0.02137763570418639,0.3230448146554374,0.43688679535255426,0.2192593901764308,0.015291694842318805,0
81,Elementary,32.820878,-116.93116,"1376 Pepper Drive,El Cajon,CA,92021",92021,"W. D. Hall Elementary, Cajon Valley Union",Cajon Valley Union,642.0,0.3411214953271028,60193.0,77874.0,89.1,7675.0,10.9,1391.0,55155.0,11560.0,7324.0,9905.0,4971.0,28.22,0.003970628229534947,995,65068,0.02137763570418639,0.3230448146554374,0.43688679535255426,0.2192593901764308,0.015291694842318805,0
82,Elementary,32.861732,-116.84665,"9863 Oakmont Terrace,El Cajon,CA,92021",92021,"Blossom Valley Elementary, Cajon Valley Union",Cajon Valley Union,573.0,0.268760907504363,60193.0,77874.0,89.1,7675.0,10.9,1391.0,55155.0,11560.0,7324.0,9905.0,4971.0,28.22,0.003970628229534947,995,65068,0.02137763570418639,0.3230448146554374,0.43688679535255426,0.2192593901764308,0.015291694842318805,0
83,Elementary,32.807708,-116.93212,"1384 Broadway,El Cajon,CA,92021",92021,"Cajon Valley Home, Cajon Valley Union",Cajon Valley Union,133.0,0.37593984962406013,60193.0,77874.0,89.1,7675.0,10.9,1391.0,55155.0,11560.0,7324.0,9905.0,4971.0,28.22,0.003970628229534947,995,65068,0.02137763570418639,0.3230448146554374,0.43688679535255426,0.2192593901764308,0.015291694842318805,0
84,High School,32.800133,-116.94728,"1035 East Madison Avenue,El Cajon,CA,92021",92021,"El Cajon Valley High, Grossmont Union High",Grossmont Union High,1835.0,0.4092643051771117,60193.0,77874.0,89.1,7675.0,10.9,1391.0,55155.0,11560.0,7324.0,9905.0,4971.0,28.22,0.003970628229534947,995,65068,0.02137763570418639,0.3230448146554374,0.43688679535255426,0.2192593901764308,0.015291694842318805,0
85,Intermediate/Middle/Junior High,32.795836,-116.95489,"165 Roanoke Road,El Cajon,CA,92020",92020,"Empower, Cajon Valley Union",Cajon Valley Union,26.0,0.0,58493.0,80649.0,89.0,6347.0,11.0,1410.0,45793.0,8922.0,6783.0,7889.0,4380.0,28.12,0.005066276505142708,1057,57767,0.02440839925909256,0.33699534336212716,0.39194401647999727,0.21760866930946735,0.018297643983589247,0
86,Elementary,32.786,-116.9478,"1005 South Anza Street,El Cajon,CA,92020",92020,"Anza Elementary, Cajon Valley Union",Cajon Valley Union,628.0,0.2372611464968153,58493.0,80649.0,89.0,6347.0,11.0,1410.0,45793.0,8922.0,6783.0,7889.0,4380.0,28.12,0.005066276505142708,1057,57767,0.02440839925909256,0.33699534336212716,0.39194401647999727,0.21760866930946735,0.018297643983589247,0
87,Intermediate/Middle/Junior High,32.798383,-116.95555,"550 Park Avenue,El Cajon,CA,92020",92020,"Cajon Valley Middle, Cajon Valley Union",Cajon Valley Union,1070.0,0.41682242990654206,58493.0,80649.0,89.0,6347.0,11.0,1410.0,45793.0,8922.0,6783.0,7889.0,4380.0,28.12,0.005066276505142708,1057,57767,0.02440839925909256,0.33699534336212716,0.39194401647999727,0.21760866930946735,0.018297643983589247,0
88,Elementary,32.780336,-116.96003,"195 East Chase Avenue,El Cajon,CA,92020",92020,"Chase Avenue Elementary, Cajon Valley Union",Cajon Valley Union,832.0,0.38341346153846156,58493.0,80649.0,89.0,6347.0,11.0,1410.0,45793.0,8922.0,6783.0,7889.0,4380.0,28.12,0.005066276505142708,1057,57767,0.02440839925909256,0.33699534336212716,0.39194401647999727,0.21760866930946735,0.018297643983589247,0
89,Intermediate/Middle/Junior High,32.778996,-116.96869,"1221 South Emerald Avenue,El Cajon,CA,92020",92020,"Emerald Middle, Cajon Valley Union",Cajon Valley Union,679.0,0.3136966126656848,58493.0,80649.0,89.0,6347.0,11.0,1410.0,45793.0,8922.0,6783.0,7889.0,4380.0,28.12,0.005066276505142708,1057,57767,0.02440839925909256,0.33699534336212716,0.39194401647999727,0.21760866930946735,0.018297643983589247,0
90,Elementary,32.811827,-116.9824,"1251 Finch Street,El Cajon,CA,92020",92020,"Flying Hills School of Arts, Cajon Valley Union",Cajon Valley Union,586.0,0.36860068259385664,58493.0,80649.0,89.0,6347.0,11.0,1410.0,45793.0,8922.0,6783.0,7889.0,4380.0,28.12,0.005066276505142708,1057,57767,0.02440839925909256,0.33699534336212716,0.39194401647999727,0.21760866930946735,0.018297643983589247,0
91,Elementary,32.762217,-116.94678,"11625 Fuerte Drive,El Cajon,CA,92020",92020,"Fuerte Elementary, Cajon Valley Union",Cajon Valley Union,696.0,0.1968390804597701,58493.0,80649.0,89.0,6347.0,11.0,1410.0,45793.0,8922.0,6783.0,7889.0,4380.0,28.12,0.005066276505142708,1057,57767,0.02440839925909256,0.33699534336212716,0.39194401647999727,0.21760866930946735,0.018297643983589247,0
92,Elementary,32.8008,-116.9562,"500 West Madison,El Cajon,CA,92020",92020,"Johnson Elementary, Cajon Valley Union",Cajon Valley Union,795.0,0.44150943396226416,58493.0,80649.0,89.0,6347.0,11.0,1410.0,45793.0,8922.0,6783.0,7889.0,4380.0,28.12,0.005066276505142708,1057,57767,0.02440839925909256,0.33699534336212716,0.39194401647999727,0.21760866930946735,0.018297643983589247,0
93,High School,32.816861,-116.97965,"1600 North Cuyamaca Street,El Cajon,CA,92020",92020,"MERIT Academy, Grossmont Union High",Grossmont Union High,100.0,0.31,58493.0,80649.0,89.0,6347.0,11.0,1410.0,45793.0,8922.0,6783.0,7889.0,4380.0,28.12,0.005066276505142708,1057,57767,0.02440839925909256,0.33699534336212716,0.39194401647999727,0.21760866930946735,0.018297643983589247,0
94,High School,32.816861,-116.97965,"1600 North Cuyamaca Street,El Cajon,CA,92020",92020,"IDEA Center, Grossmont Union High",Grossmont Union High,270.0,0.3962962962962963,58493.0,80649.0,89.0,6347.0,11.0,1410.0,45793.0,8922.0,6783.0,7889.0,4380.0,28.12,0.005066276505142708,1057,57767,0.02440839925909256,0.33699534336212716,0.39194401647999727,0.21760866930946735,0.018297643983589247,0
95,High School,32.814927,-117.00889,"8800 Grossmont College Drive,El Cajon,CA,92020",92020,"Grossmont Middle College High, Grossmont Union High",Grossmont Union High,71.0,0.29577464788732394,58493.0,80649.0,89.0,6347.0,11.0,1410.0,45793.0,8922.0,6783.0,7889.0,4380.0,28.12,0.005066276505142708,1057,57767,0.02440839925909256,0.33699534336212716,0.39194401647999727,0.21760866930946735,0.018297643983589247,0
96,High School,32.816896,-116.9797,"1600 North Cuyamaca Street,El Cajon,CA,92020",92020,"Chaparral High, Grossmont Union High",Grossmont Union High,178.0,0.43258426966292135,58493.0,80649.0,89.0,6347.0,11.0,1410.0,45793.0,8922.0,6783.0,7889.0,4380.0,28.12,0.005066276505142708,1057,57767,0.02440839925909256,0.33699534336212716,0.39194401647999727,0.21760866930946735,0.018297643983589247,0
97,Elementary,32.800478,-116.99618,"2330 Center Place,El Cajon,CA,92020",92020,"Fletcher Hills Elementary, La Mesa-Spring Valley",La Mesa-Spring Valley,699.0,0.2718168812589413,58493.0,80649.0,89.0,6347.0,11.0,1410.0,45793.0,8922.0,6783.0,7889.0,4380.0,28.12,0.005066276505142708,1057,57767,0.02440839925909256,0.33699534336212716,0.39194401647999727,0.21760866930946735,0.018297643983589247,0
98,Elementary,32.826876,-116.95401,"1935 Marlinda Way,El Cajon,CA,92020",92020,"Pepper Drive Elementary, Santee",Santee,1022.0,0.3639921722113503,58493.0,80649.0,89.0,6347.0,11.0,1410.0,45793.0,8922.0,6783.0,7889.0,4380.0,28.12,0.005066276505142708,1057,57767,0.02440839925909256,0.33699534336212716,0.39194401647999727,0.21760866930946735,0.018297643983589247,0
99,Elementary,32.791145,-116.94234,"1145 Redwood Avenue,El Cajon,CA,92019",92019,"Lexington Elementary, Cajon Valley Union",Cajon Valley Union,936.0,0.39636752136752135,89860.0,108196.0,92.6,3163.0,7.4,1295.0,35355.0,5993.0,3382.0,5979.0,5527.0,30.16,0.0037618441521708387,574,42598,0.030400488285835015,0.22785905441570026,0.402829475562233,0.37237640264801164,0.013474811023991737,2
100,Elementary,32.800143,-116.922,"1615 East Madison Avenue,El Cajon,CA,92019",92019,"Madison Avenue Elementary, Cajon Valley Union",Cajon Valley Union,707.0,0.33946251768033947,89860.0,108196.0,92.6,3163.0,7.4,1295.0,35355.0,5993.0,3382.0,5979.0,5527.0,30.16,0.0037618441521708387,574,42598,0.030400488285835015,0.22785905441570026,0.402829475562233,0.37237640264801164,0.013474811023991737,2
101,Elementary,32.788386,-116.92685,"651 South Third Street,El Cajon,CA,92019",92019,"Meridian Elementary, Cajon Valley Union",Cajon Valley Union,648.0,0.24537037037037038,89860.0,108196.0,92.6,3163.0,7.4,1295.0,35355.0,5993.0,3382.0,5979.0,5527.0,30.16,0.0037618441521708387,574,42598,0.030400488285835015,0.22785905441570026,0.402829475562233,0.37237640264801164,0.013474811023991737,2
102,Intermediate/Middle/Junior High,32.79653,-116.92542,"1570 Melody Lane,El Cajon,CA,92019",92019,"Montgomery Middle, Cajon Valley Union",Cajon Valley Union,985.0,0.3746192893401015,89860.0,108196.0,92.6,3163.0,7.4,1295.0,35355.0,5993.0,3382.0,5979.0,5527.0,30.16,0.0037618441521708387,574,42598,0.030400488285835015,0.22785905441570026,0.402829475562233,0.37237640264801164,0.013474811023991737,2
103,Elementary,32.76508,-116.91501,"1908 Vista Grande Road,El Cajon,CA,92019",92019,"Vista Grande Elementary, Cajon Valley Union",Cajon Valley Union,635.0,0.15905511811023623,89860.0,108196.0,92.6,3163.0,7.4,1295.0,35355.0,5993.0,3382.0,5979.0,5527.0,30.16,0.0037618441521708387,574,42598,0.030400488285835015,0.22785905441570026,0.402829475562233,0.37237640264801164,0.013474811023991737,2
104,Elementary,32.754628,-116.93287,"12151 Calle Albara,El Cajon,CA,92019",92019,"Rancho San Diego Elementary, Cajon Valley Union",Cajon Valley Union,628.0,0.18630573248407642,89860.0,108196.0,92.6,3163.0,7.4,1295.0,35355.0,5993.0,3382.0,5979.0,5527.0,30.16,0.0037618441521708387,574,42598,0.030400488285835015,0.22785905441570026,0.402829475562233,0.37237640264801164,0.013474811023991737,2
105,Elementary,32.740143,-116.91223,"2962 Jamul Drive,El Cajon,CA,92019",92019,"Jamacha Elementary, Cajon Valley Union",Cajon Valley Union,518.0,0.2644787644787645,89860.0,108196.0,92.6,3163.0,7.4,1295.0,35355.0,5993.0,3382.0,5979.0,5527.0,30.16,0.0037618441521708387,574,42598,0.030400488285835015,0.22785905441570026,0.402829475562233,0.37237640264801164,0.013474811023991737,2
106,Intermediate/Middle/Junior High,32.74944,-116.9324,"1301 Brabham Street,El Cajon,CA,92019",92019,"Hillsdale Middle, Cajon Valley Union",Cajon Valley Union,1581.0,0.25806451612903225,89860.0,108196.0,92.6,3163.0,7.4,1295.0,35355.0,5993.0,3382.0,5979.0,5527.0,30.16,0.0037618441521708387,574,42598,0.030400488285835015,0.22785905441570026,0.402829475562233,0.37237640264801164,0.013474811023991737,2
107,Elementary,32.781239,-116.8512,"4612 Dehesa Road,El Cajon,CA,92019",92019,"Dehesa Elementary, Dehesa Elementary",Dehesa Elementary,163.0,0.31901840490797545,89860.0,108196.0,92.6,3163.0,7.4,1295.0,35355.0,5993.0,3382.0,5979.0,5527.0,30.16,0.0037618441521708387,574,42598,0.030400488285835015,0.22785905441570026,0.402829475562233,0.37237640264801164,0.013474811023991737,2
108,High School,32.793343,-116.93536,"230 Jamacha Road,El Cajon,CA,92019",92019,"REACH Academy, Grossmont Union High",Grossmont Union High,35.0,0.5142857142857142,89860.0,108196.0,92.6,3163.0,7.4,1295.0,35355.0,5993.0,3382.0,5979.0,5527.0,30.16,0.0037618441521708387,574,42598,0.030400488285835015,0.22785905441570026,0.402829475562233,0.37237640264801164,0.013474811023991737,2
109,High School,32.762192,-116.92037,"1725 Hillsdale Road,El Cajon,CA,92019",92019,"Valhalla High, Grossmont Union High",Grossmont Union High,2194.0,0.26618049225159524,89860.0,108196.0,92.6,3163.0,7.4,1295.0,35355.0,5993.0,3382.0,5979.0,5527.0,30.16,0.0037618441521708387,574,42598,0.030400488285835015,0.22785905441570026,0.402829475562233,0.37237640264801164,0.013474811023991737,2
110,High School,32.793615,-116.93495,"230 Jamacha Boulevard,El Cajon,CA,92019",92019,"Elite Academy, Grossmont Union High",Grossmont Union High,50.0,0.4,89860.0,108196.0,92.6,3163.0,7.4,1295.0,35355.0,5993.0,3382.0,5979.0,5527.0,30.16,0.0037618441521708387,574,42598,0.030400488285835015,0.22785905441570026,0.402829475562233,0.37237640264801164,0.013474811023991737,2
111,High School,32.800159,-116.91681,"1719 East Madison Avenue,El Cajon,CA,92019",92019,"Granite Hills High, Grossmont Union High",Grossmont Union High,2388.0,0.3806532663316583,89860.0,108196.0,92.6,3163.0,7.4,1295.0,35355.0,5993.0,3382.0,5979.0,5527.0,30.16,0.0037618441521708387,574,42598,0.030400488285835015,0.22785905441570026,0.402829475562233,0.37237640264801164,0.013474811023991737,2
112,Elementary,32.750432,-116.96075,"3845 Avocado School Road,La Mesa,CA,91941",91941,"Avocado Elementary, Cajon Valley Union",Cajon Valley Union,628.0,0.3248407643312102,92253.0,115289.0,92.5,2452.0,7.5,1008.0,26460.0,4170.0,2625.0,4898.0,4350.0,38.26,0.003325774754346183,318,31779,0.03171905975644294,0.23706693099216467,0.4423443154284276,0.3928537713584443,0.010006608137449259,2
113,Elementary,32.757662,-117.03215,"4370 Parks Avenue,La Mesa,CA,91941",91941,"La Mesa Dale Elementary, La Mesa-Spring Valley",La Mesa-Spring Valley,542.0,0.4483394833948339,92253.0,115289.0,92.5,2452.0,7.5,1008.0,26460.0,4170.0,2625.0,4898.0,4350.0,38.26,0.003325774754346183,318,31779,0.03171905975644294,0.23706693099216467,0.4423443154284276,0.3928537713584443,0.010006608137449259,2
114,Elementary,32.768184,-117.00837,"8787 Lemon Avenue,La Mesa,CA,91941",91941,"Lemon Avenue Elementary, La Mesa-Spring Valley",La Mesa-Spring Valley,645.0,0.34728682170542635,92253.0,115289.0,92.5,2452.0,7.5,1008.0,26460.0,4170.0,2625.0,4898.0,4350.0,38.26,0.003325774754346183,318,31779,0.03171905975644294,0.23706693099216467,0.4423443154284276,0.3928537713584443,0.010006608137449259,2
115,Elementary,32.777787,-117.0382,"5400 Maryland Avenue,La Mesa,CA,91941",91941,"Maryland Avenue Elementary, La Mesa-Spring Valley",La Mesa-Spring Valley,563.0,0.3641207815275311,92253.0,115289.0,92.5,2452.0,7.5,1008.0,26460.0,4170.0,2625.0,4898.0,4350.0,38.26,0.003325774754346183,318,31779,0.03171905975644294,0.23706693099216467,0.4423443154284276,0.3928537713584443,0.010006608137449259,2
116,Elementary,32.763199,-117.04876,"6925 Tower Street,La Mesa,CA,91941",91941,"Rolando Elementary, La Mesa-Spring Valley",La Mesa-Spring Valley,598.0,0.44648829431438125,92253.0,115289.0,92.5,2452.0,7.5,1008.0,26460.0,4170.0,2625.0,4898.0,4350.0,38.26,0.003325774754346183,318,31779,0.03171905975644294,0.23706693099216467,0.4423443154284276,0.3928537713584443,0.010006608137449259,2
117,Elementary,32.758828,-116.98474,"4354 Conrad Drive,La Mesa,CA,91941",91941,"Murdock Elementary, La Mesa-Spring Valley",La Mesa-Spring Valley,648.0,0.38580246913580246,92253.0,115289.0,92.5,2452.0,7.5,1008.0,26460.0,4170.0,2625.0,4898.0,4350.0,38.26,0.003325774754346183,318,31779,0.03171905975644294,0.23706693099216467,0.4423443154284276,0.3928537713584443,0.010006608137449259,2
118,Elementary,32.748456,-117.04497,"3900 Violet Street,La Mesa,CA,91941",91941,"Vista La Mesa Academy, Lemon Grove",Lemon Grove,697.0,0.5494978479196556,92253.0,115289.0,92.5,2452.0,7.5,1008.0,26460.0,4170.0,2625.0,4898.0,4350.0,38.26,0.003325774754346183,318,31779,0.03171905975644294,0.23706693099216467,0.4423443154284276,0.3928537713584443,0.010006608137449259,2
119,Elementary,33.03128,-117.27349,"1508 Windsor Road,Cardiff-by-the-Sea,CA,92007",92007,"Ada W. Harris Elementary, Cardiff Elementary",Cardiff Elementary,368.0,0.20652173913043478,136346.0,180499.0,94.6,606.0,5.4,857.0,9479.0,1501.0,615.0,1519.0,2350.0,30.56,0.0011604599641312375,47,10429,0.08217470514910347,0.16924441461309808,0.41801994438584716,0.6467062997411065,0.004506664109694122,1
120,Elementary,33.025044,-117.2822,"1888 Montgomery Avenue,Cardiff-by-the-Sea,CA,92007",92007,"Cardiff Elementary, Cardiff Elementary",Cardiff Elementary,354.0,0.1638418079096045,136346.0,180499.0,94.6,606.0,5.4,857.0,9479.0,1501.0,615.0,1519.0,2350.0,30.56,0.0011604599641312375,47,10429,0.08217470514910347,0.16924441461309808,0.41801994438584716,0.6467062997411065,0.004506664109694122,1
121,Elementary,32.61674,-117.015,"930 East Palomar,Chula Vista,CA,91913",91913,"Hedenkamp (Anne and William) Elementary, Chula Vista Elementary",Chula Vista Elementary,1035.0,0.49468599033816424,93540.0,110780.0,92.5,3611.0,7.5,1490.0,36614.0,9816.0,2629.0,5863.0,5877.0,24.01,0.003632490304255203,687,40971,0.03636718654658173,0.18416025969588246,0.4107004954724073,0.41168118913377755,0.016767957823826608,2
122,Elementary,32.623835,-116.97634,"1550 Magdalena Avenue,Chula Vista,CA,91913",91913,"Veterans Elementary, Chula Vista Elementary",Chula Vista Elementary,925.0,0.46594594594594596,93540.0,110780.0,92.5,3611.0,7.5,1490.0,36614.0,9816.0,2629.0,5863.0,5877.0,24.01,0.003632490304255203,687,40971,0.03636718654658173,0.18416025969588246,0.4107004954724073,0.41168118913377755,0.016767957823826608,2
123,Elementary,32.611931,-116.97324,"1950 Wolf Canyon Loop,Chula Vista,CA,91913",91913,"Wolf Canyon Elementary, Chula Vista Elementary",Chula Vista Elementary,822.0,0.3880778588807786,93540.0,110780.0,92.5,3611.0,7.5,1490.0,36614.0,9816.0,2629.0,5863.0,5877.0,24.01,0.003632490304255203,687,40971,0.03636718654658173,0.18416025969588246,0.4107004954724073,0.41168118913377755,0.016767957823826608,2
124,Elementary,32.64483,-116.99102,"1691 Elmhurst Street,Chula Vista,CA,91913",91913,"Tiffany (Burton C.) Elementary, Chula Vista Elementary",Chula Vista Elementary,531.0,0.6195856873822976,93540.0,110780.0,92.5,3611.0,7.5,1490.0,36614.0,9816.0,2629.0,5863.0,5877.0,24.01,0.003632490304255203,687,40971,0.03636718654658173,0.18416025969588246,0.4107004954724073,0.41168118913377755,0.016767957823826608,2
125,Elementary,32.657494,-116.98515,"1955 Hillside Drive,Chula Vista,CA,91913",91913,"EastLake Elementary, Chula Vista Elementary",Chula Vista Elementary,596.0,0.6761744966442953,93540.0,110780.0,92.5,3611.0,7.5,1490.0,36614.0,9816.0,2629.0,5863.0,5877.0,24.01,0.003632490304255203,687,40971,0.03636718654658173,0.18416025969588246,0.4107004954724073,0.41168118913377755,0.016767957823826608,2
126,Elementary,32.626236,-116.9953,"1450 Santa Lucia Road,Chula Vista,CA,91913",91913,"Heritage Elementary, Chula Vista Elementary",Chula Vista Elementary,858.0,0.5034965034965035,93540.0,110780.0,92.5,3611.0,7.5,1490.0,36614.0,9816.0,2629.0,5863.0,5877.0,24.01,0.003632490304255203,687,40971,0.03636718654658173,0.18416025969588246,0.4107004954724073,0.41168118913377755,0.016767957823826608,2
127,Elementary,32.631793,-116.98529,"1201 Santa Cora Avenue,Chula Vista,CA,91913",91913,"McMillin (Corky) Elementary, Chula Vista Elementary",Chula Vista Elementary,891.0,0.49270482603815935,93540.0,110780.0,92.5,3611.0,7.5,1490.0,36614.0,9816.0,2629.0,5863.0,5877.0,24.01,0.003632490304255203,687,40971,0.03636718654658173,0.18416025969588246,0.4107004954724073,0.41168118913377755,0.016767957823826608,2
128,High School,32.607105,-116.97209,"1925 Magdalena Avenue,Chula Vista,CA,91913",91913,"Olympian High, Sweetwater Union High",Sweetwater Union High,2604.0,0.5495391705069125,93540.0,110780.0,92.5,3611.0,7.5,1490.0,36614.0,9816.0,2629.0,5863.0,5877.0,24.01,0.003632490304255203,687,40971,0.03636718654658173,0.18416025969588246,0.4107004954724073,0.41168118913377755,0.016767957823826608,2
129,High School,32.6101,-117.0768,"1791 Rock Mountain Road,Chula Vista,CA,91913",91913,"East Hills Academy, Sweetwater Union High",Sweetwater Union High,82.0,0.7804878048780488,93540.0,110780.0,92.5,3611.0,7.5,1490.0,36614.0,9816.0,2629.0,5863.0,5877.0,24.01,0.003632490304255203,687,40971,0.03636718654658173,0.18416025969588246,0.4107004954724073,0.41168118913377755,0.016767957823826608,2
130,High School,32.64603,-117.00114,"751 Otay Lakes Road,Chula Vista,CA,91913",91913,"Bonita Vista Senior High, Sweetwater Union High",Sweetwater Union High,2479.0,0.6966518757563533,93540.0,110780.0,92.5,3611.0,7.5,1490.0,36614.0,9816.0,2629.0,5863.0,5877.0,24.01,0.003632490304255203,687,40971,0.03636718654658173,0.18416025969588246,0.4107004954724073,0.41168118913377755,0.016767957823826608,2
131,High School,32.619073,-116.99635,"1250 Olympic Parkway,Chula Vista,CA,91913",91913,"Otay Ranch Senior High, Sweetwater Union High",Sweetwater Union High,2510.0,0.5964143426294821,93540.0,110780.0,92.5,3611.0,7.5,1490.0,36614.0,9816.0,2629.0,5863.0,5877.0,24.01,0.003632490304255203,687,40971,0.03636718654658173,0.18416025969588246,0.4107004954724073,0.41168118913377755,0.016767957823826608,2
132,Elementary,32.663976,-116.97761,"2175 Proctor Valley Road,Chula Vista,CA,91914",91914,"Liberty Elementary, Chula Vista Elementary",Chula Vista Elementary,722.0,0.5277008310249307,139417.0,157134.0,96.8,538.0,3.2,326.0,12517.0,3774.0,361.0,1144.0,3093.0,34.27,0.004873372213789247,239,15448,0.02110305541170378,0.06706822889694458,0.21253754531330915,0.5746316675297773,0.015471258415328846,1
133,Elementary,32.649018,-116.94925,"1055 Hunte Parkway,Chula Vista,CA,91914",91914,"Salt Creek Elementary, Chula Vista Elementary",Chula Vista Elementary,946.0,0.4809725158562368,139417.0,157134.0,96.8,538.0,3.2,326.0,12517.0,3774.0,361.0,1144.0,3093.0,34.27,0.004873372213789247,239,15448,0.02110305541170378,0.06706822889694458,0.21253754531330915,0.5746316675297773,0.015471258415328846,1
134,Elementary,32.659064,-116.9682,"2295 MacKenzie Creek Road,Chula Vista,CA,91914",91914,"Marshall (Thurgood) Elementary, Chula Vista Elementary",Chula Vista Elementary,691.0,0.47756874095513746,139417.0,157134.0,96.8,538.0,3.2,326.0,12517.0,3774.0,361.0,1144.0,3093.0,34.27,0.004873372213789247,239,15448,0.02110305541170378,0.06706822889694458,0.21253754531330915,0.5746316675297773,0.015471258415328846,1
135,Intermediate/Middle/Junior High,32.655591,-116.94818,"900 Duncan Ranch Road,Chula Vista,CA,91914",91914,"Eastlake Middle, Sweetwater Union High",Sweetwater Union High,1896.0,0.4651898734177215,139417.0,157134.0,96.8,538.0,3.2,326.0,12517.0,3774.0,361.0,1144.0,3093.0,34.27,0.004873372213789247,239,15448,0.02110305541170378,0.06706822889694458,0.21253754531330915,0.5746316675297773,0.015471258415328846,1
136,Elementary,32.622811,-116.95651,"1650 Exploration Falls Drive,Chula Vista,CA,91915",91915,"Camarena (Enrique S.) Elementary, Chula Vista Elementary",Chula Vista Elementary,1094.0,0.45612431444241314,105354.0,118655.0,95.2,1506.0,4.8,700.0,23325.0,6732.0,881.0,2880.0,4444.0,28.0,0.0039013933547695605,416,24659,0.028387201427470702,0.10253741027616692,0.33519607445557403,0.5172261648890871,0.01687010827689687,1
137,Elementary,32.615167,-116.99163,"1644 Santa Alexia Avenue,Chula Vista,CA,91915",91915,"Muraoka (Saburo) Elementary, Chula Vista Elementary",Chula Vista Elementary,789.0,0.40430925221799746,105354.0,118655.0,95.2,1506.0,4.8,700.0,23325.0,6732.0,881.0,2880.0,4444.0,28.0,0.0039013933547695605,416,24659,0.028387201427470702,0.10253741027616692,0.33519607445557403,0.5172261648890871,0.01687010827689687,1
138,Elementary,32.63572,-116.96342,"1220 South Greensview Drive,Chula Vista,CA,91915",91915,"Olympic View Elementary, Chula Vista Elementary",Chula Vista Elementary,782.0,0.540920716112532,105354.0,118655.0,95.2,1506.0,4.8,700.0,23325.0,6732.0,881.0,2880.0,4444.0,28.0,0.0039013933547695605,416,24659,0.028387201427470702,0.10253741027616692,0.33519607445557403,0.5172261648890871,0.01687010827689687,1
139,High School,32.646442,-116.96522,"1120 Eastlake Parkway,Chula Vista,CA,91915",91915,"Eastlake High, Sweetwater Union High",Sweetwater Union High,3046.0,0.5636900853578464,105354.0,118655.0,95.2,1506.0,4.8,700.0,23325.0,6732.0,881.0,2880.0,4444.0,28.0,0.0039013933547695605,416,24659,0.028387201427470702,0.10253741027616692,0.33519607445557403,0.5172261648890871,0.01687010827689687,1
140,Elementary,32.656765,-117.03358,"4300 Allen School Road,Bonita,CA,91902",91902,"Allen (Ella B.) Elementary, Chula Vista Elementary",Chula Vista Elementary,380.0,0.6289473684210526,104025.0,121292.0,88.6,2235.0,11.4,523.0,16184.0,2710.0,835.0,2416.0,2827.0,31.36,0.0032748393475037075,222,17653,0.029626692346909872,0.13575312977964085,0.3927898940689968,0.45960969806831703,0.012575766158726562,2
141,Elementary,32.674619,-117.01545,"5430 San Miguel Road,Bonita,CA,91902",91902,"Sunnyside Elementary, Chula Vista Elementary",Chula Vista Elementary,453.0,0.6556291390728477,104025.0,121292.0,88.6,2235.0,11.4,523.0,16184.0,2710.0,835.0,2416.0,2827.0,31.36,0.0032748393475037075,222,17653,0.029626692346909872,0.13575312977964085,0.3927898940689968,0.45960969806831703,0.012575766158726562,2
142,Elementary,32.659676,-117.04907,"3724 Valley Vista Way,Bonita,CA,91902",91902,"Valley Vista Elementary, Chula Vista Elementary",Chula Vista Elementary,621.0,0.7697262479871175,104025.0,121292.0,88.6,2235.0,11.4,523.0,16184.0,2710.0,835.0,2416.0,2827.0,31.36,0.0032748393475037075,222,17653,0.029626692346909872,0.13575312977964085,0.3927898940689968,0.45960969806831703,0.012575766158726562,2
143,Elementary,32.602452,-117.04055,"1540 Malta Avenue,Chula Vista,CA,91911",91911,"Rohr (Fred H.) Elementary, Chula Vista Elementary",Chula Vista Elementary,326.0,0.8404907975460123,55898.0,69335.0,86.0,11700.0,14.0,1262.0,65531.0,13691.0,7867.0,11685.0,4736.0,29.75,0.006760159313912499,1932,82999,0.015205002469909277,0.2720308678417812,0.40405245846335497,0.16376486463692333,0.023277388884203425,0
144,Elementary,32.611251,-117.07781,"510 East Naples Street,Chula Vista,CA,91911",91911,"Rogers (Greg) Elementary, Chula Vista Elementary",Chula Vista Elementary,451.0,0.6984478935698448,55898.0,69335.0,86.0,11700.0,14.0,1262.0,65531.0,13691.0,7867.0,11685.0,4736.0,29.75,0.006760159313912499,1932,82999,0.015205002469909277,0.2720308678417812,0.40405245846335497,0.16376486463692333,0.023277388884203425,0
145,Elementary,32.609058,-117.08551,"681 Naples Street,Chula Vista,CA,91911",91911,"Harborside Elementary, Chula Vista Elementary",Chula Vista Elementary,725.0,0.9075862068965517,55898.0,69335.0,86.0,11700.0,14.0,1262.0,65531.0,13691.0,7867.0,11685.0,4736.0,29.75,0.006760159313912499,1932,82999,0.015205002469909277,0.2720308678417812,0.40405245846335497,0.16376486463692333,0.023277388884203425,0
146,Elementary,32.625934,-117.0562,"875 Cuyamaca Avenue,Chula Vista,CA,91911",91911,"Cook (Hazel Goes) Elementary, Chula Vista Elementary",Chula Vista Elementary,381.0,0.8451443569553806,55898.0,69335.0,86.0,11700.0,14.0,1262.0,65531.0,13691.0,7867.0,11685.0,4736.0,29.75,0.006760159313912499,1932,82999,0.015205002469909277,0.2720308678417812,0.40405245846335497,0.16376486463692333,0.023277388884203425,0
147,Elementary,32.620279,-117.07566,"390 Palomar Street,Chula Vista,CA,91911",91911,"Lauderbach (J. Calvin) Elementary, Chula Vista Elementary",Chula Vista Elementary,876.0,0.8961187214611872,55898.0,69335.0,86.0,11700.0,14.0,1262.0,65531.0,13691.0,7867.0,11685.0,4736.0,29.75,0.006760159313912499,1932,82999,0.015205002469909277,0.2720308678417812,0.40405245846335497,0.16376486463692333,0.023277388884203425,0
148,Elementary,32.597875,-117.069,"1601 Fourth Avenue,Chula Vista,CA,91911",91911,"Montgomery (John J.) Elementary, Chula Vista Elementary",Chula Vista Elementary,363.0,0.90633608815427,55898.0,69335.0,86.0,11700.0,14.0,1262.0,65531.0,13691.0,7867.0,11685.0,4736.0,29.75,0.006760159313912499,1932,82999,0.015205002469909277,0.2720308678417812,0.40405245846335497,0.16376486463692333,0.023277388884203425,0
149,Elementary,32.619721,-117.04805,"229 East Naples Street,Chula Vista,CA,91911",91911,"Kellogg (Karl H.) Elementary, Chula Vista Elementary",Chula Vista Elementary,364.0,0.8351648351648352,55898.0,69335.0,86.0,11700.0,14.0,1262.0,65531.0,13691.0,7867.0,11685.0,4736.0,29.75,0.006760159313912499,1932,82999,0.015205002469909277,0.2720308678417812,0.40405245846335497,0.16376486463692333,0.023277388884203425,0
150,Elementary,32.619137,-117.07569,"915 Fourth Avenue,Chula Vista,CA,91911",91911,"Rice (Lilian J.) Elementary, Chula Vista Elementary",Chula Vista Elementary,716.0,0.8603351955307262,55898.0,69335.0,86.0,11700.0,14.0,1262.0,65531.0,13691.0,7867.0,11685.0,4736.0,29.75,0.006760159313912499,1932,82999,0.015205002469909277,0.2720308678417812,0.40405245846335497,0.16376486463692333,0.023277388884203425,0
151,Elementary,32.601123,-117.04889,"1450 Loma Lane,Chula Vista,CA,91911",91911,"Loma Verde Elementary, Chula Vista Elementary",Chula Vista Elementary,573.0,0.8830715532286213,55898.0,69335.0,86.0,11700.0,14.0,1262.0,65531.0,13691.0,7867.0,11685.0,4736.0,29.75,0.006760159313912499,1932,82999,0.015205002469909277,0.2720308678417812,0.40405245846335497,0.16376486463692333,0.023277388884203425,0
152,Elementary,32.613776,-117.04282,"300 East Palomar Street,Chula Vista,CA,91911",91911,"Palomar Elementary, Chula Vista Elementary",Chula Vista Elementary,368.0,0.8722826086956522,55898.0,69335.0,86.0,11700.0,14.0,1262.0,65531.0,13691.0,7867.0,11685.0,4736.0,29.75,0.006760159313912499,1932,82999,0.015205002469909277,0.2720308678417812,0.40405245846335497,0.16376486463692333,0.023277388884203425,0
153,Elementary,32.649741,-117.07336,"80 Flower Street,Chula Vista,CA,91911",91911,"Rosebank Elementary, Chula Vista Elementary",Chula Vista Elementary,651.0,0.7818740399385561,55898.0,69335.0,86.0,11700.0,14.0,1262.0,65531.0,13691.0,7867.0,11685.0,4736.0,29.75,0.006760159313912499,1932,82999,0.015205002469909277,0.2720308678417812,0.40405245846335497,0.16376486463692333,0.023277388884203425,0
154,Elementary,32.604937,-117.03275,"1515 Oleander Avenue,Chula Vista,CA,91911",91911,"Valle Lindo Elementary, Chula Vista Elementary",Chula Vista Elementary,477.0,0.7568134171907757,55898.0,69335.0,86.0,11700.0,14.0,1262.0,65531.0,13691.0,7867.0,11685.0,4736.0,29.75,0.006760159313912499,1932,82999,0.015205002469909277,0.2720308678417812,0.40405245846335497,0.16376486463692333,0.023277388884203425,0
155,Elementary,32.612989,-117.03115,"575 Juniper Street,Chula Vista,CA,91911",91911,"Parkview Elementary, Chula Vista Elementary",Chula Vista Elementary,399.0,0.706766917293233,55898.0,69335.0,86.0,11700.0,14.0,1262.0,65531.0,13691.0,7867.0,11685.0,4736.0,29.75,0.006760159313912499,1932,82999,0.015205002469909277,0.2720308678417812,0.40405245846335497,0.16376486463692333,0.023277388884203425,0
156,Elementary,32.595806,-117.05804,"1651 Albany Avenue,Chula Vista,CA,91911",91911,"Otay Elementary, Chula Vista Elementary",Chula Vista Elementary,619.0,0.8659127625201939,55898.0,69335.0,86.0,11700.0,14.0,1262.0,65531.0,13691.0,7867.0,11685.0,4736.0,29.75,0.006760159313912499,1932,82999,0.015205002469909277,0.2720308678417812,0.40405245846335497,0.16376486463692333,0.023277388884203425,0
157,High School,32.606982,-117.05284,"1395 Hilltop Drive,Chula Vista,CA,91911",91911,"Castle Park Senior High, Sweetwater Union High",Sweetwater Union High,1926.0,0.9080996884735203,55898.0,69335.0,86.0,11700.0,14.0,1262.0,65531.0,13691.0,7867.0,11685.0,4736.0,29.75,0.006760159313912499,1932,82999,0.015205002469909277,0.2720308678417812,0.40405245846335497,0.16376486463692333,0.023277388884203425,0
158,High School,32.622027,-117.07697,"820 Fourth Avenue,Chula Vista,CA,91911",91911,"Chula Vista Senior High, Sweetwater Union High",Sweetwater Union High,2701.0,0.8985560903369123,55898.0,69335.0,86.0,11700.0,14.0,1262.0,65531.0,13691.0,7867.0,11685.0,4736.0,29.75,0.006760159313912499,1932,82999,0.015205002469909277,0.2720308678417812,0.40405245846335497,0.16376486463692333,0.023277388884203425,0
159,High School,32.61526,-117.07696,"467 Moss Street,Chula Vista,CA,91911",91911,"Options Secondary, Sweetwater Union High",Sweetwater Union High,135.0,0.7333333333333333,55898.0,69335.0,86.0,11700.0,14.0,1262.0,65531.0,13691.0,7867.0,11685.0,4736.0,29.75,0.006760159313912499,1932,82999,0.015205002469909277,0.2720308678417812,0.40405245846335497,0.16376486463692333,0.023277388884203425,0
160,High School,32.61872,-117.02445,"730 Medical Center Court,Chula Vista,CA,91911",91911,"Alta Vista Academy, Sweetwater Union High",Sweetwater Union High,77.0,0.4675324675324675,55898.0,69335.0,86.0,11700.0,14.0,1262.0,65531.0,13691.0,7867.0,11685.0,4736.0,29.75,0.006760159313912499,1932,82999,0.015205002469909277,0.2720308678417812,0.40405245846335497,0.16376486463692333,0.023277388884203425,0
161,High School,32.604757,-117.07385,"480 Palomar Street,Chula Vista,CA,91911",91911,"Palomar High, Sweetwater Union High",Sweetwater Union High,440.0,0.9295454545454546,55898.0,69335.0,86.0,11700.0,14.0,1262.0,65531.0,13691.0,7867.0,11685.0,4736.0,29.75,0.006760159313912499,1932,82999,0.015205002469909277,0.2720308678417812,0.40405245846335497,0.16376486463692333,0.023277388884203425,0
162,Intermediate/Middle/Junior High,32.604981,-117.05939,"160 Quintard Street,Chula Vista,CA,91911",91911,"Castle Park Middle, Sweetwater Union High",Sweetwater Union High,905.0,0.8353591160220994,55898.0,69335.0,86.0,11700.0,14.0,1262.0,65531.0,13691.0,7867.0,11685.0,4736.0,29.75,0.006760159313912499,1932,82999,0.015205002469909277,0.2720308678417812,0.40405245846335497,0.16376486463692333,0.023277388884203425,0
163,High School,32.605905,-117.06115,"1355 Second Avenue,Chula Vista,CA,91911",91911,"Sweetwater Community Day, Sweetwater Union High",Sweetwater Union High,45.0,0.8888888888888888,55898.0,69335.0,86.0,11700.0,14.0,1262.0,65531.0,13691.0,7867.0,11685.0,4736.0,29.75,0.006760159313912499,1932,82999,0.015205002469909277,0.2720308678417812,0.40405245846335497,0.16376486463692333,0.023277388884203425,0
164,Elementary,32.584496,-117.04839,"3950 Byrd Street,San Diego,CA,92154",92154,"Finney (Myrtle S.) Elementary, Chula Vista Elementary",Chula Vista Elementary,402.0,0.8233830845771144,66148.0,76400.0,86.3,11286.0,13.7,1102.0,69152.0,13172.0,5530.0,10942.0,5154.0,28.95,0.007577510411846368,2334,79708,0.013825462939730014,0.19911552165403726,0.3939822853414965,0.18557710643850053,0.029281878857831085,0
165,Elementary,32.578749,-117.05258,"3730 Arey Drive,San Diego,CA,92154",92154,"Silver Wing Elementary, Chula Vista Elementary",Chula Vista Elementary,458.0,0.8471615720524017,66148.0,76400.0,86.3,11286.0,13.7,1102.0,69152.0,13172.0,5530.0,10942.0,5154.0,28.95,0.007577510411846368,2334,79708,0.013825462939730014,0.19911552165403726,0.3939822853414965,0.18557710643850053,0.029281878857831085,0
166,Elementary,32.58072,-117.04543,"849 Twining Avenue,San Diego,CA,92154",92154,"Juarez-Lincoln Elementary, Chula Vista Elementary",Chula Vista Elementary,596.0,0.7634228187919463,66148.0,76400.0,86.3,11286.0,13.7,1102.0,69152.0,13172.0,5530.0,10942.0,5154.0,28.95,0.007577510411846368,2334,79708,0.013825462939730014,0.19911552165403726,0.3939822853414965,0.18557710643850053,0.029281878857831085,0
167,Elementary,32.572654,-117.04889,"1332 Kenalan Drive,San Diego,CA,92154",92154,"Los Altos Elementary, Chula Vista Elementary",Chula Vista Elementary,353.0,0.9065155807365439,66148.0,76400.0,86.3,11286.0,13.7,1102.0,69152.0,13172.0,5530.0,10942.0,5154.0,28.95,0.007577510411846368,2334,79708,0.013825462939730014,0.19911552165403726,0.3939822853414965,0.18557710643850053,0.029281878857831085,0
168,Intermediate/Middle/Junior High,32.570714,-117.02802,"4885 Del Sol Boulevard,San Diego,CA,92154",92154,"Vista Del Mar, San Ysidro Elementary",San Ysidro Elementary,444.0,0.7567567567567568,66148.0,76400.0,86.3,11286.0,13.7,1102.0,69152.0,13172.0,5530.0,10942.0,5154.0,28.95,0.007577510411846368,2334,79708,0.013825462939730014,0.19911552165403726,0.3939822853414965,0.18557710643850053,0.029281878857831085,0
169,Elementary,32.572128,-117.02577,"4919 Del Sol Boulevard,San Diego,CA,92154",92154,"Ocean View Hills, San Ysidro Elementary",San Ysidro Elementary,1077.0,0.6713091922005571,66148.0,76400.0,86.3,11286.0,13.7,1102.0,69152.0,13172.0,5530.0,10942.0,5154.0,28.95,0.007577510411846368,2334,79708,0.013825462939730014,0.19911552165403726,0.3939822853414965,0.18557710643850053,0.029281878857831085,0
170,Elementary,32.576466,-117.09159,"1915 Coronado Avenue,San Diego,CA,92154",92154,"Emory Elementary, South Bay Union",South Bay Union,580.0,0.7293103448275862,66148.0,76400.0,86.3,11286.0,13.7,1102.0,69152.0,13172.0,5530.0,10942.0,5154.0,28.95,0.007577510411846368,2334,79708,0.013825462939730014,0.19911552165403726,0.3939822853414965,0.18557710643850053,0.029281878857831085,0
171,Elementary,32.58014,-117.07974,"2500 Elm Avenue,San Diego,CA,92154",92154,"Sunnyslope Elementary, South Bay Union",South Bay Union,560.0,0.9339285714285714,66148.0,76400.0,86.3,11286.0,13.7,1102.0,69152.0,13172.0,5530.0,10942.0,5154.0,28.95,0.007577510411846368,2334,79708,0.013825462939730014,0.19911552165403726,0.3939822853414965,0.18557710643850053,0.029281878857831085,0
172,Elementary,32.568151,-117.08999,"2001 Rimbey Street,San Diego,CA,92154",92154,"Godfrey G. Berry Elementary, South Bay Union",South Bay Union,545.0,0.8532110091743119,66148.0,76400.0,86.3,11286.0,13.7,1102.0,69152.0,13172.0,5530.0,10942.0,5154.0,28.95,0.007577510411846368,2334,79708,0.013825462939730014,0.19911552165403726,0.3939822853414965,0.18557710643850053,0.029281878857831085,0
173,Elementary,32.579102,-117.06191,"877 Via Tonga Court,San Diego,CA,92154",92154,"Howard Pence Elementary, South Bay Union",South Bay Union,723.0,0.9031811894882434,66148.0,76400.0,86.3,11286.0,13.7,1102.0,69152.0,13172.0,5530.0,10942.0,5154.0,28.95,0.007577510411846368,2334,79708,0.013825462939730014,0.19911552165403726,0.3939822853414965,0.18557710643850053,0.029281878857831085,0
174,Elementary,32.576464,-117.08954,"2050 Coronado Avenue,San Diego,CA,92154",92154,"Teofilo Mendoza, South Bay Union",South Bay Union,871.0,0.8645235361653272,66148.0,76400.0,86.3,11286.0,13.7,1102.0,69152.0,13172.0,5530.0,10942.0,5154.0,28.95,0.007577510411846368,2334,79708,0.013825462939730014,0.19911552165403726,0.3939822853414965,0.18557710643850053,0.029281878857831085,0
175,High School,32.568057,-117.08409,"1685 Hollister Street,San Diego,CA,92154",92154,"Southwest Senior High, Sweetwater Union High",Sweetwater Union High,1933.0,0.9291257113295396,66148.0,76400.0,86.3,11286.0,13.7,1102.0,69152.0,13172.0,5530.0,10942.0,5154.0,28.95,0.007577510411846368,2334,79708,0.013825462939730014,0.19911552165403726,0.3939822853414965,0.18557710643850053,0.029281878857831085,0
176,High School,32.566438,-117.01748,"5353 Airway Road,San Diego,CA,92154",92154,"San Ysidro High, Sweetwater Union High",Sweetwater Union High,2632.0,0.9072948328267477,66148.0,76400.0,86.3,11286.0,13.7,1102.0,69152.0,13172.0,5530.0,10942.0,5154.0,28.95,0.007577510411846368,2334,79708,0.013825462939730014,0.19911552165403726,0.3939822853414965,0.18557710643850053,0.029281878857831085,0
177,High School,32.583873,-117.06422,"3250 Palm Avenue,San Diego,CA,92154",92154,"Montgomery Senior High, Sweetwater Union High",Sweetwater Union High,2054.0,0.8622200584225901,66148.0,76400.0,86.3,11286.0,13.7,1102.0,69152.0,13172.0,5530.0,10942.0,5154.0,28.95,0.007577510411846368,2334,79708,0.013825462939730014,0.19911552165403726,0.3939822853414965,0.18557710643850053,0.029281878857831085,0
178,Intermediate/Middle/Junior High,32.57488,-117.09709,"1267 Thermal Avenue,San Diego,CA,92154",92154,"Mar Vista Academy, Sweetwater Union High",Sweetwater Union High,827.0,0.7122128174123338,66148.0,76400.0,86.3,11286.0,13.7,1102.0,69152.0,13172.0,5530.0,10942.0,5154.0,28.95,0.007577510411846368,2334,79708,0.013825462939730014,0.19911552165403726,0.3939822853414965,0.18557710643850053,0.029281878857831085,0
179,Intermediate/Middle/Junior High,32.569138,-117.07381,"2710 Iris Street,San Diego,CA,92154",92154,"Southwest Middle, Sweetwater Union High",Sweetwater Union High,754.0,0.8687002652519894,66148.0,76400.0,86.3,11286.0,13.7,1102.0,69152.0,13172.0,5530.0,10942.0,5154.0,28.95,0.007577510411846368,2334,79708,0.013825462939730014,0.19911552165403726,0.3939822853414965,0.18557710643850053,0.029281878857831085,0
180,Intermediate/Middle/Junior High,32.576045,-117.05612,"1051 Picador Boulevard,San Diego,CA,92154",92154,"Montgomery Middle, Sweetwater Union High",Sweetwater Union High,969.0,0.7554179566563467,66148.0,76400.0,86.3,11286.0,13.7,1102.0,69152.0,13172.0,5530.0,10942.0,5154.0,28.95,0.007577510411846368,2334,79708,0.013825462939730014,0.19911552165403726,0.3939822853414965,0.18557710643850053,0.029281878857831085,0
181,High School,32.691403,-117.17817,"650 D Avenue,Coronado,CA,92118",92118,"Coronado High, Coronado Unified",Coronado Unified,1193.0,0.2179379715004191,121710.0,166867.0,97.3,523.0,2.7,2187.0,18864.0,2898.0,1444.0,2821.0,4221.0,21.36,0.001166242578456319,125,23575,0.0927677624602333,0.1757913043478261,0.34342608695652177,0.5138608695652174,0.005302226935312832,1
182,Elementary,32.693914,-117.18213,"600 Sixth Street,Coronado,CA,92118",92118,"Coronado Village Elementary, Coronado Unified",Coronado Unified,893.0,0.1881298992161254,121710.0,166867.0,97.3,523.0,2.7,2187.0,18864.0,2898.0,1444.0,2821.0,4221.0,21.36,0.001166242578456319,125,23575,0.0927677624602333,0.1757913043478261,0.34342608695652177,0.5138608695652174,0.005302226935312832,1
183,Elementary,32.643984,-117.14542,"1350 Leyte Road,Coronado,CA,92118",92118,"Silver Strand Elementary, Coronado Unified",Coronado Unified,369.0,0.23035230352303523,121710.0,166867.0,97.3,523.0,2.7,2187.0,18864.0,2898.0,1444.0,2821.0,4221.0,21.36,0.001166242578456319,125,23575,0.0927677624602333,0.1757913043478261,0.34342608695652177,0.5138608695652174,0.005302226935312832,1
184,Intermediate/Middle/Junior High,32.69378,-117.17956,"550 F Avenue,Coronado,CA,92118",92118,"Coronado Middle, Coronado Unified",Coronado Unified,764.0,0.20287958115183247,121710.0,166867.0,97.3,523.0,2.7,2187.0,18864.0,2898.0,1444.0,2821.0,4221.0,21.36,0.001166242578456319,125,23575,0.0927677624602333,0.1757913043478261,0.34342608695652177,0.5138608695652174,0.005302226935312832,1
185,Elementary,32.954011,-117.19998,"5333 Old Carmel Valley Road,San Diego,CA,92130",92130,"Sycamore Ridge, Del Mar Union Elementary",Del Mar Union Elementary,627.0,0.16267942583732056,167370.0,207676.0,96.8,1736.0,3.2,2921.0,40833.0,11245.0,2006.0,4174.0,12946.0,24.41,0.0012734797835084368,265,48940,0.05968532897425419,0.11763833265222723,0.24477686963628936,0.7591953412341643,0.005414793624846751,1
186,Elementary,32.9281,-117.2147,"11444 Canter Heights Drive,San Diego,CA,92130",92130,"Ocean Air, Del Mar Union Elementary",Del Mar Union Elementary,672.0,0.0744047619047619,167370.0,207676.0,96.8,1736.0,3.2,2921.0,40833.0,11245.0,2006.0,4174.0,12946.0,24.41,0.0012734797835084368,265,48940,0.05968532897425419,0.11763833265222723,0.24477686963628936,0.7591953412341643,0.005414793624846751,1
187,Elementary,32.94087,-117.22955,"12345 Carmel Park Drive,San Diego,CA,92130",92130,"Carmel Del Mar Elementary, Del Mar Union Elementary",Del Mar Union Elementary,548.0,0.11313868613138686,167370.0,207676.0,96.8,1736.0,3.2,2921.0,40833.0,11245.0,2006.0,4174.0,12946.0,24.41,0.0012734797835084368,265,48940,0.05968532897425419,0.11763833265222723,0.24477686963628936,0.7591953412341643,0.005414793624846751,1
188,Elementary,32.957549,-117.20781,"13030 Ashley Falls Drive,San Diego,CA,92130",92130,"Ashley Falls Elementary, Del Mar Union Elementary",Del Mar Union Elementary,557.0,0.08976660682226212,167370.0,207676.0,96.8,1736.0,3.2,2921.0,40833.0,11245.0,2006.0,4174.0,12946.0,24.41,0.0012734797835084368,265,48940,0.05968532897425419,0.11763833265222723,0.24477686963628936,0.7591953412341643,0.005414793624846751,1
189,Elementary,32.925277,-117.20411,"5290 Harvest Run Drive,San Diego,CA,92130",92130,"Sage Canyon, Del Mar Union Elementary",Del Mar Union Elementary,679.0,0.10014727540500737,167370.0,207676.0,96.8,1736.0,3.2,2921.0,40833.0,11245.0,2006.0,4174.0,12946.0,24.41,0.0012734797835084368,265,48940,0.05968532897425419,0.11763833265222723,0.24477686963628936,0.7591953412341643,0.005414793624846751,1
190,Elementary,32.913451,-117.2232,"10830 Calle Mar de Mariposa,San Diego,CA,92130",92130,"Torrey Hills, Del Mar Union Elementary",Del Mar Union Elementary,589.0,0.13412563667232597,167370.0,207676.0,96.8,1736.0,3.2,2921.0,40833.0,11245.0,2006.0,4174.0,12946.0,24.41,0.0012734797835084368,265,48940,0.05968532897425419,0.11763833265222723,0.24477686963628936,0.7591953412341643,0.005414793624846751,1
191,High School,32.96024,-117.18835,"5951 Village Center Loop Road,San Diego,CA,92130",92130,"Canyon Crest Academy, San Dieguito Union High",San Dieguito Union High,2578.0,0.07680372381691233,167370.0,207676.0,96.8,1736.0,3.2,2921.0,40833.0,11245.0,2006.0,4174.0,12946.0,24.41,0.0012734797835084368,265,48940,0.05968532897425419,0.11763833265222723,0.24477686963628936,0.7591953412341643,0.005414793624846751,1
192,Intermediate/Middle/Junior High,32.958864,-117.18624,"5975 Village Center Loop Road,San Diego,CA,92130",92130,"Pacific Trails Middle, San Dieguito Union High",San Dieguito Union High,749.0,0.09078771695594126,167370.0,207676.0,96.8,1736.0,3.2,2921.0,40833.0,11245.0,2006.0,4174.0,12946.0,24.41,0.0012734797835084368,265,48940,0.05968532897425419,0.11763833265222723,0.24477686963628936,0.7591953412341643,0.005414793624846751,1
193,High School,32.956384,-117.22497,"3710 Del Mar Heights Road,San Diego,CA,92130",92130,"Torrey Pines High, San Dieguito Union High",San Dieguito Union High,2509.0,0.13391789557592668,167370.0,207676.0,96.8,1736.0,3.2,2921.0,40833.0,11245.0,2006.0,4174.0,12946.0,24.41,0.0012734797835084368,265,48940,0.05968532897425419,0.11763833265222723,0.24477686963628936,0.7591953412341643,0.005414793624846751,1
194,Intermediate/Middle/Junior High,32.946669,-117.22895,"3800 Mykonos Lane,San Diego,CA,92130",92130,"Carmel Valley Middle, San Dieguito Union High",San Dieguito Union High,1169.0,0.1086398631308811,167370.0,207676.0,96.8,1736.0,3.2,2921.0,40833.0,11245.0,2006.0,4174.0,12946.0,24.41,0.0012734797835084368,265,48940,0.05968532897425419,0.11763833265222723,0.24477686963628936,0.7591953412341643,0.005414793624846751,1
195,Elementary,32.952072,-117.23132,"3901 Townsgate Drive,San Diego,CA,92130",92130,"Solana Pacific Elementary, Solana Beach Elementary",Solana Beach Elementary,573.0,0.07853403141361257,167370.0,207676.0,96.8,1736.0,3.2,2921.0,40833.0,11245.0,2006.0,4174.0,12946.0,24.41,0.0012734797835084368,265,48940,0.05968532897425419,0.11763833265222723,0.24477686963628936,0.7591953412341643,0.005414793624846751,1
196,Elementary,32.964436,-117.19227,"13605 Pacific Highlands Ranch Parkway,San Diego,CA,92130",92130,"Solana Ranch Elementary, Solana Beach Elementary",Solana Beach Elementary,605.0,0.0743801652892562,167370.0,207676.0,96.8,1736.0,3.2,2921.0,40833.0,11245.0,2006.0,4174.0,12946.0,24.41,0.0012734797835084368,265,48940,0.05968532897425419,0.11763833265222723,0.24477686963628936,0.7591953412341643,0.005414793624846751,1
197,Elementary,32.954318,-117.24018,"3520 Long Run Drive,San Diego,CA,92130",92130,"Solana Highlands Elementary, Solana Beach Elementary",Solana Beach Elementary,323.0,0.09597523219814241,167370.0,207676.0,96.8,1736.0,3.2,2921.0,40833.0,11245.0,2006.0,4174.0,12946.0,24.41,0.0012734797835084368,265,48940,0.05968532897425419,0.11763833265222723,0.24477686963628936,0.7591953412341643,0.005414793624846751,1
198,Elementary,32.950872,-117.22565,"4210 Carmel Center Road,San Diego,CA,92130",92130,"Carmel Creek Elementary, Solana Beach Elementary",Solana Beach Elementary,392.0,0.09693877551020408,167370.0,207676.0,96.8,1736.0,3.2,2921.0,40833.0,11245.0,2006.0,4174.0,12946.0,24.41,0.0012734797835084368,265,48940,0.05968532897425419,0.11763833265222723,0.24477686963628936,0.7591953412341643,0.005414793624846751,1
199,Elementary,32.945637,-117.24973,"13555 Boquita Drive,Del Mar,CA,92014",92014,"Del Mar Heights Elementary, Del Mar Union Elementary",Del Mar Union Elementary,507.0,0.08678500986193294,165481.0,243736.0,94.0,838.0,6.0,996.0,11755.0,1938.0,718.0,1753.0,3633.0,15.52,0.0007656316461080392,67,13154,0.07571841265014444,0.15665653033297855,0.38247757336171506,0.7926645887182606,0.005093507678272768,1
200,Elementary,32.954058,-117.24724,"14085 Mango Drive,Del Mar,CA,92014",92014,"Del Mar Hills Elementary, Del Mar Union Elementary",Del Mar Union Elementary,305.0,0.20327868852459016,165481.0,243736.0,94.0,838.0,6.0,996.0,11755.0,1938.0,718.0,1753.0,3633.0,15.52,0.0007656316461080392,67,13154,0.07571841265014444,0.15665653033297855,0.38247757336171506,0.7926645887182606,0.005093507678272768,1
201,Elementary,33.058062,-117.29703,"185 Union Street,Encinitas,CA,92024",92024,"Paul Ecke-Central Elementary, Encinitas Union Elementary",Encinitas Union Elementary,692.0,0.32947976878612717,130380.0,168437.0,92.5,3802.0,7.5,3906.0,41787.0,6967.0,3697.0,5980.0,10138.0,30.13,0.0016512312441668462,298,49121,0.0795179251236742,0.2160051709045011,0.3493943527208322,0.5923344394454509,0.00606665173754606,1
202,Elementary,33.039889,-117.2725,"910 Melba Road,Encinitas,CA,92024",92024,"Ocean Knoll Elementary, Encinitas Union Elementary",Encinitas Union Elementary,692.0,0.3916184971098266,130380.0,168437.0,92.5,3802.0,7.5,3906.0,41787.0,6967.0,3697.0,5980.0,10138.0,30.13,0.0016512312441668462,298,49121,0.0795179251236742,0.2160051709045011,0.3493943527208322,0.5923344394454509,0.00606665173754606,1
203,Elementary,33.076064,-117.28846,"941 Capri Road,Encinitas,CA,92024",92024,"Capri Elementary, Encinitas Union Elementary",Encinitas Union Elementary,739.0,0.34100135317997293,130380.0,168437.0,92.5,3802.0,7.5,3906.0,41787.0,6967.0,3697.0,5980.0,10138.0,30.13,0.0016512312441668462,298,49121,0.0795179251236742,0.2160051709045011,0.3493943527208322,0.5923344394454509,0.00606665173754606,1
204,Elementary,33.046392,-117.24311,"2050 Park Dale Lane,Encinitas,CA,92024",92024,"Park Dale Lane Elementary, Encinitas Union Elementary",Encinitas Union Elementary,492.0,0.2540650406504065,130380.0,168437.0,92.5,3802.0,7.5,3906.0,41787.0,6967.0,3697.0,5980.0,10138.0,30.13,0.0016512312441668462,298,49121,0.0795179251236742,0.2160051709045011,0.3493943527208322,0.5923344394454509,0.00606665173754606,1
205,Elementary,33.055334,-117.25288,"1690 Wandering Road,Encinitas,CA,92024",92024,"Flora Vista Elementary, Encinitas Union Elementary",Encinitas Union Elementary,473.0,0.12050739957716702,130380.0,168437.0,92.5,3802.0,7.5,3906.0,41787.0,6967.0,3697.0,5980.0,10138.0,30.13,0.0016512312441668462,298,49121,0.0795179251236742,0.2160051709045011,0.3493943527208322,0.5923344394454509,0.00606665173754606,1
206,High School,33.043504,-117.27747,"684 Requeza Street,Encinitas,CA,92024",92024,"Sunset High (Continuation), San Dieguito Union High",San Dieguito Union High,204.0,0.25,130380.0,168437.0,92.5,3802.0,7.5,3906.0,41787.0,6967.0,3697.0,5980.0,10138.0,30.13,0.0016512312441668462,298,49121,0.0795179251236742,0.2160051709045011,0.3493943527208322,0.5923344394454509,0.00606665173754606,1
207,High School,33.036329,-117.27501,"800 Santa Fe Drive,Encinitas,CA,92024",92024,"San Dieguito HS Academy, San Dieguito Union High",San Dieguito Union High,1862.0,0.2121374865735768,130380.0,168437.0,92.5,3802.0,7.5,3906.0,41787.0,6967.0,3697.0,5980.0,10138.0,30.13,0.0016512312441668462,298,49121,0.0795179251236742,0.2160051709045011,0.3493943527208322,0.5923344394454509,0.00606665173754606,1
208,Intermediate/Middle/Junior High,33.042141,-117.26833,"675 Balour Drive,Encinitas,CA,92024",92024,"Oak Crest Middle, San Dieguito Union High",San Dieguito Union High,764.0,0.24345549738219896,130380.0,168437.0,92.5,3802.0,7.5,3906.0,41787.0,6967.0,3697.0,5980.0,10138.0,30.13,0.0016512312441668462,298,49121,0.0795179251236742,0.2160051709045011,0.3493943527208322,0.5923344394454509,0.00606665173754606,1
209,Intermediate/Middle/Junior High,33.056629,-117.24202,"2150 Village Park Way,Encinitas,CA,92024",92024,"Diegueno Middle, San Dieguito Union High",San Dieguito Union High,962.0,0.17463617463617465,130380.0,168437.0,92.5,3802.0,7.5,3906.0,41787.0,6967.0,3697.0,5980.0,10138.0,30.13,0.0016512312441668462,298,49121,0.0795179251236742,0.2160051709045011,0.3493943527208322,0.5923344394454509,0.00606665173754606,1
210,Elementary,33.080785,-117.24484,"3035 Levante Street,Carlsbad,CA,92009",92009,"La Costa Heights Elementary, Encinitas Union Elementary",Encinitas Union Elementary,695.0,0.1237410071942446,136862.0,171952.0,95.0,2198.0,5.0,3112.0,34569.0,7939.0,1968.0,4826.0,9691.0,17.55,0.0009546125141022303,221,40747,0.07637372076471888,0.13861535818587872,0.33991753994159085,0.6825820305789384,0.005423712175129458,1
211,Elementary,33.072276,-117.23533,"3330 Calle Barcelona,Carlsbad,CA,92009",92009,"Mission Estancia Elementary, Encinitas Union Elementary",Encinitas Union Elementary,513.0,0.16569200779727095,136862.0,171952.0,95.0,2198.0,5.0,3112.0,34569.0,7939.0,1968.0,4826.0,9691.0,17.55,0.0009546125141022303,221,40747,0.07637372076471888,0.13861535818587872,0.33991753994159085,0.6825820305789384,0.005423712175129458,1
212,Elementary,33.064891,-117.23227,"8000 Calle Acervo,Carlsbad,CA,92009",92009,"Olivenhain Pioneer Elementary, Encinitas Union Elementary",Encinitas Union Elementary,583.0,0.10120068610634649,136862.0,171952.0,95.0,2198.0,5.0,3112.0,34569.0,7939.0,1968.0,4826.0,9691.0,17.55,0.0009546125141022303,221,40747,0.07637372076471888,0.13861535818587872,0.33991753994159085,0.6825820305789384,0.005423712175129458,1
213,Elementary,33.077016,-117.25892,"7885 Paseo Aliso,Carlsbad,CA,92009",92009,"El Camino Creek Elementary, Encinitas Union Elementary",Encinitas Union Elementary,602.0,0.09136212624584718,136862.0,171952.0,95.0,2198.0,5.0,3112.0,34569.0,7939.0,1968.0,4826.0,9691.0,17.55,0.0009546125141022303,221,40747,0.07637372076471888,0.13861535818587872,0.33991753994159085,0.6825820305789384,0.005423712175129458,1
214,High School,33.075076,-117.23236,"1 Maverick Way,Encinitas,CA,92009",92009,"La Costa Canyon High, San Dieguito Union High",San Dieguito Union High,2030.0,0.1625615763546798,136862.0,171952.0,95.0,2198.0,5.0,3112.0,34569.0,7939.0,1968.0,4826.0,9691.0,17.55,0.0009546125141022303,221,40747,0.07637372076471888,0.13861535818587872,0.33991753994159085,0.6825820305789384,0.005423712175129458,1
215,Elementary,33.1186,-117.2562,"2445 Mica Road,Carlsbad,CA,92009",92009,"Poinsettia Elementary, Carlsbad Unified",Carlsbad Unified,477.0,0.23270440251572327,136862.0,171952.0,95.0,2198.0,5.0,3112.0,34569.0,7939.0,1968.0,4826.0,9691.0,17.55,0.0009546125141022303,221,40747,0.07637372076471888,0.13861535818587872,0.33991753994159085,0.6825820305789384,0.005423712175129458,1
216,Elementary,33.101346,-117.27667,"6900 Ambrosia Lane,Carlsbad,CA,92009",92009,"Aviara Oaks Elementary, Carlsbad Unified",Carlsbad Unified,701.0,0.24679029957203993,136862.0,171952.0,95.0,2198.0,5.0,3112.0,34569.0,7939.0,1968.0,4826.0,9691.0,17.55,0.0009546125141022303,221,40747,0.07637372076471888,0.13861535818587872,0.33991753994159085,0.6825820305789384,0.005423712175129458,1
217,Elementary,33.110252,-117.30595,"1100 Camino de las Ondas,Carlsbad,CA,92009",92009,"Pacific Rim Elementary, Carlsbad Unified",Carlsbad Unified,842.0,0.1187648456057007,136862.0,171952.0,95.0,2198.0,5.0,3112.0,34569.0,7939.0,1968.0,4826.0,9691.0,17.55,0.0009546125141022303,221,40747,0.07637372076471888,0.13861535818587872,0.33991753994159085,0.6825820305789384,0.005423712175129458,1
218,Elementary,33.104542,-117.23995,"6889 El Fuerte Street,Carlsbad,CA,92009",92009,"La Costa Meadows Elementary, San Marcos Unified",San Marcos Unified,888.0,0.18468468468468469,136862.0,171952.0,95.0,2198.0,5.0,3112.0,34569.0,7939.0,1968.0,4826.0,9691.0,17.55,0.0009546125141022303,221,40747,0.07637372076471888,0.13861535818587872,0.33991753994159085,0.6825820305789384,0.005423712175129458,1
219,Elementary,33.119466,-117.2419,"2875 Poinsettia Lane,Carlsbad,CA,92009",92009,"Carrillo Elementary, San Marcos Unified",San Marcos Unified,925.0,0.23351351351351352,136862.0,171952.0,95.0,2198.0,5.0,3112.0,34569.0,7939.0,1968.0,4826.0,9691.0,17.55,0.0009546125141022303,221,40747,0.07637372076471888,0.13861535818587872,0.33991753994159085,0.6825820305789384,0.005423712175129458,1
220,Elementary,33.138769,-117.0776,"933 Farr Avenue,Escondido,CA,92026",92026,"Farr Avenue Elementary, Escondido Union",Escondido Union,661.0,0.9485627836611196,74809.0,91909.0,87.0,6291.0,13.0,1214.0,39162.0,6290.0,4514.0,6855.0,5009.0,38.85,0.003957918390276288,554,48922,0.02481501165119987,0.2648129675810474,0.40214729569518826,0.29385205020236294,0.01132414864478149,0
221,Elementary,33.17259,-117.08928,"2869 North Broadway,Escondido,CA,92026",92026,"Reidy Creek Elementary, Escondido Union",Escondido Union,695.0,0.4330935251798561,74809.0,91909.0,87.0,6291.0,13.0,1214.0,39162.0,6290.0,4514.0,6855.0,5009.0,38.85,0.003957918390276288,554,48922,0.02481501165119987,0.2648129675810474,0.40214729569518826,0.29385205020236294,0.01132414864478149,2
222,Intermediate/Middle/Junior High,33.13394,-117.07324,"939 East Mission Avenue,Escondido,CA,92026",92026,"Mission Middle, Escondido Union",Escondido Union,1059.0,0.9414542020774316,74809.0,91909.0,87.0,6291.0,13.0,1214.0,39162.0,6290.0,4514.0,6855.0,5009.0,38.85,0.003957918390276288,554,48922,0.02481501165119987,0.2648129675810474,0.40214729569518826,0.29385205020236294,0.01132414864478149,0
223,Elementary,33.134291,-117.08714,"1029 North Broadway,Escondido,CA,92026",92026,"Lincoln Elementary, Escondido Union",Escondido Union,549.0,0.9216757741347905,74809.0,91909.0,87.0,6291.0,13.0,1214.0,39162.0,6290.0,4514.0,6855.0,5009.0,38.85,0.003957918390276288,554,48922,0.02481501165119987,0.2648129675810474,0.40214729569518826,0.29385205020236294,0.01132414864478149,0
224,Elementary,33.161048,-117.09293,"2301 North Broadway,Escondido,CA,92026",92026,"North Broadway Elementary, Escondido Union",Escondido Union,633.0,0.6034755134281201,74809.0,91909.0,87.0,6291.0,13.0,1214.0,39162.0,6290.0,4514.0,6855.0,5009.0,38.85,0.003957918390276288,554,48922,0.02481501165119987,0.2648129675810474,0.40214729569518826,0.29385205020236294,0.01132414864478149,2
225,Intermediate/Middle/Junior High,33.157721,-117.08255,"925 Lehner Avenue,Escondido,CA,92026",92026,"Rincon Middle, Escondido Union",Escondido Union,1210.0,0.7099173553719008,74809.0,91909.0,87.0,6291.0,13.0,1214.0,39162.0,6290.0,4514.0,6855.0,5009.0,38.85,0.003957918390276288,554,48922,0.02481501165119987,0.2648129675810474,0.40214729569518826,0.29385205020236294,0.01132414864478149,0
226,Elementary,33.13701,-117.1059,"1155 Deodar Road,Escondido,CA,92026",92026,"Rock Springs Elementary, Escondido Union",Escondido Union,566.0,0.7455830388692579,74809.0,91909.0,87.0,6291.0,13.0,1214.0,39162.0,6290.0,4514.0,6855.0,5009.0,38.85,0.003957918390276288,554,48922,0.02481501165119987,0.2648129675810474,0.40214729569518826,0.29385205020236294,0.01132414864478149,0
227,High School,33.144413,-117.09028,"1535 North Broadway,Escondido,CA,92026",92026,"Escondido High, Escondido Union High",Escondido Union High,2373.0,0.7800252844500632,74809.0,91909.0,87.0,6291.0,13.0,1214.0,39162.0,6290.0,4514.0,6855.0,5009.0,38.85,0.003957918390276288,554,48922,0.02481501165119987,0.2648129675810474,0.40214729569518826,0.29385205020236294,0.01132414864478149,0
228,Elementary,33.084707,-117.09137,"1122 Mountain Heights Drive,Escondido,CA,92029",92029,"Bernardo Elementary, Escondido Union",Escondido Union,605.0,0.3322314049586777,95582.0,120970.0,93.3,1236.0,6.7,758.0,15668.0,2265.0,1306.0,2761.0,2923.0,41.56,0.0020423793719683433,109,19021,0.039850691341149255,0.1970569370695547,0.4165958677251459,0.4410393775300983,0.005730508385468692,2
229,High School,33.096589,-117.10349,"1740 Scenic Trail Way,Escondido,CA,92029",92029,"Del Lago Academy - Campus of Applied Science, Escondido Union High",Escondido Union High,830.0,0.6072289156626506,95582.0,120970.0,93.3,1236.0,6.7,758.0,15668.0,2265.0,1306.0,2761.0,2923.0,41.56,0.0020423793719683433,109,19021,0.039850691341149255,0.1970569370695547,0.4165958677251459,0.4410393775300983,0.005730508385468692,2
230,Intermediate/Middle/Junior High,33.143614,-117.03501,"420 North Falconer Road,Escondido,CA,92027",92027,"Quantum Academy, Escondido Union",Escondido Union,308.0,0.5162337662337663,66063.0,84570.0,82.7,9924.0,17.3,1020.0,44775.0,8190.0,4182.0,7476.0,4536.0,44.86,0.004868788386376326,704,53881,0.018930606336185297,0.2227564447578924,0.39821309923720793,0.24161244223381156,0.013065830255563186,0
231,Elementary,33.146289,-117.07398,"1325 Conway Drive,Escondido,CA,92027",92027,"Conway Elementary, Escondido Union",Escondido Union,573.0,0.8691099476439791,66063.0,84570.0,82.7,9924.0,17.3,1020.0,44775.0,8190.0,4182.0,7476.0,4536.0,44.86,0.004868788386376326,704,53881,0.018930606336185297,0.2227564447578924,0.39821309923720793,0.24161244223381156,0.013065830255563186,0
232,Elementary,33.12953,-117.05125,"1820 Oak Hill Drive,Escondido,CA,92027",92027,"Oak Hill Elementary, Escondido Union",Escondido Union,813.0,0.9077490774907749,66063.0,84570.0,82.7,9924.0,17.3,1020.0,44775.0,8190.0,4182.0,7476.0,4536.0,44.86,0.004868788386376326,704,53881,0.018930606336185297,0.2227564447578924,0.39821309923720793,0.24161244223381156,0.013065830255563186,0
233,Elementary,33.143321,-117.0659,"906 North Rose Avenue,Escondido,CA,92027",92027,"Rose Elementary, Escondido Union",Escondido Union,563.0,0.8614564831261101,66063.0,84570.0,82.7,9924.0,17.3,1020.0,44775.0,8190.0,4182.0,7476.0,4536.0,44.86,0.004868788386376326,704,53881,0.018930606336185297,0.2227564447578924,0.39821309923720793,0.24161244223381156,0.013065830255563186,0
234,Elementary,33.146627,-117.05374,"2201 East Mission Avenue,Escondido,CA,92027",92027,"Glen View Elementary, Escondido Union",Escondido Union,718.0,0.8342618384401114,66063.0,84570.0,82.7,9924.0,17.3,1020.0,44775.0,8190.0,4182.0,7476.0,4536.0,44.86,0.004868788386376326,704,53881,0.018930606336185297,0.2227564447578924,0.39821309923720793,0.24161244223381156,0.013065830255563186,0
235,Elementary,33.145429,-117.03605,"2861 Valley Parkway,Escondido,CA,92027",92027,"Orange Glen Elementary, Escondido Union",Escondido Union,666.0,0.8243243243243243,66063.0,84570.0,82.7,9924.0,17.3,1020.0,44775.0,8190.0,4182.0,7476.0,4536.0,44.86,0.004868788386376326,704,53881,0.018930606336185297,0.2227564447578924,0.39821309923720793,0.24161244223381156,0.013065830255563186,0
236,Intermediate/Middle/Junior High,33.133732,-117.03329,"2700 Reed Road,Escondido,CA,92027",92027,"Hidden Valley Middle, Escondido Union",Escondido Union,1008.0,0.876984126984127,66063.0,84570.0,82.7,9924.0,17.3,1020.0,44775.0,8190.0,4182.0,7476.0,4536.0,44.86,0.004868788386376326,704,53881,0.018930606336185297,0.2227564447578924,0.39821309923720793,0.24161244223381156,0.013065830255563186,0
237,Elementary,33.138286,-117.07223,"980 North Ash Street,Escondido,CA,92027",92027,"Pioneer Elementary, Escondido Union",Escondido Union,746.0,0.9195710455764075,66063.0,84570.0,82.7,9924.0,17.3,1020.0,44775.0,8190.0,4182.0,7476.0,4536.0,44.86,0.004868788386376326,704,53881,0.018930606336185297,0.2227564447578924,0.39821309923720793,0.24161244223381156,0.013065830255563186,0
238,High School,33.142244,-117.02326,"410 North Hidden Trails Road,Escondido,CA,92027",92027,"Valley High (Continuation), Escondido Union High",Escondido Union High,416.0,0.8822115384615384,66063.0,84570.0,82.7,9924.0,17.3,1020.0,44775.0,8190.0,4182.0,7476.0,4536.0,44.86,0.004868788386376326,704,53881,0.018930606336185297,0.2227564447578924,0.39821309923720793,0.24161244223381156,0.013065830255563186,0
239,High School,33.129474,-117.038,"2200 Glen Ridge Road,Escondido,CA,92027",92027,"Orange Glen High, Escondido Union High",Escondido Union High,1950.0,0.8666666666666667,66063.0,84570.0,82.7,9924.0,17.3,1020.0,44775.0,8190.0,4182.0,7476.0,4536.0,44.86,0.004868788386376326,704,53881,0.018930606336185297,0.2227564447578924,0.39821309923720793,0.24161244223381156,0.013065830255563186,0
240,Elementary,33.111418,-117.01127,"15305 Rockwood Road,Escondido,CA,92027",92027,"San Pasqual Union Elementary, San Pasqual Union Elementary",San Pasqual Union Elementary,603.0,0.2752902155887231,66063.0,84570.0,82.7,9924.0,17.3,1020.0,44775.0,8190.0,4182.0,7476.0,4536.0,44.86,0.004868788386376326,704,53881,0.018930606336185297,0.2227564447578924,0.39821309923720793,0.24161244223381156,0.013065830255563186,0
241,Intermediate/Middle/Junior High,33.380281,-117.25397,"400 West Elder Street,Fallbrook,CA,92028",92028,"Santa Margarita Academy, Fallbrook Union Elementary",Fallbrook Union Elementary,12.0,0.0,74683.0,97283.0,88.9,5203.0,11.1,1920.0,39103.0,6018.0,4277.0,6935.0,5320.0,47.3,0.00358028795744572,436,46239,0.04152338934665542,0.26546832760224054,0.43044724150608793,0.33020610307316334,0.009429269664136335,2
242,Elementary,33.380281,-117.25397,"400 West Elder Street,Fallbrook,CA,92028",92028,"Maie Ellis Elementary, Fallbrook Union Elementary",Fallbrook Union Elementary,567.0,0.798941798941799,74683.0,97283.0,88.9,5203.0,11.1,1920.0,39103.0,6018.0,4277.0,6935.0,5320.0,47.3,0.00358028795744572,436,46239,0.04152338934665542,0.26546832760224054,0.43044724150608793,0.33020610307316334,0.009429269664136335,2
243,Elementary,33.378156,-117.23539,"300 Heald Lane,Fallbrook,CA,92028",92028,"La Paloma Elementary, Fallbrook Union Elementary",Fallbrook Union Elementary,612.0,0.6356209150326797,74683.0,97283.0,88.9,5203.0,11.1,1920.0,39103.0,6018.0,4277.0,6935.0,5320.0,47.3,0.00358028795744572,436,46239,0.04152338934665542,0.26546832760224054,0.43044724150608793,0.33020610307316334,0.009429269664136335,2
244,Intermediate/Middle/Junior High,33.369188,-117.22164,"1743 Reche Road,Fallbrook,CA,92028",92028,"James E. Potter Intermediate, Fallbrook Union Elementary",Fallbrook Union Elementary,924.0,0.7012987012987013,74683.0,97283.0,88.9,5203.0,11.1,1920.0,39103.0,6018.0,4277.0,6935.0,5320.0,47.3,0.00358028795744572,436,46239,0.04152338934665542,0.26546832760224054,0.43044724150608793,0.33020610307316334,0.009429269664136335,2
245,Elementary,33.376687,-117.25531,"405 West Fallbrook Street,Fallbrook,CA,92028",92028,"Fallbrook STEM Academy, Fallbrook Union Elementary",Fallbrook Union Elementary,624.0,0.8237179487179487,74683.0,97283.0,88.9,5203.0,11.1,1920.0,39103.0,6018.0,4277.0,6935.0,5320.0,47.3,0.00358028795744572,436,46239,0.04152338934665542,0.26546832760224054,0.43044724150608793,0.33020610307316334,0.009429269664136335,2
246,Elementary,33.378171,-117.23546,"300 Heald Lane,Fallbrook,CA,92028",92028,"Fallbrook Homeschool Academy, Fallbrook Union Elementary",Fallbrook Union Elementary,60.0,0.23333333333333334,74683.0,97283.0,88.9,5203.0,11.1,1920.0,39103.0,6018.0,4277.0,6935.0,5320.0,47.3,0.00358028795744572,436,46239,0.04152338934665542,0.26546832760224054,0.43044724150608793,0.33020610307316334,0.009429269664136335,2
247,Elementary,33.369178,-117.2174,"1978 Reche Road,Fallbrook,CA,92028",92028,"Live Oak Elementary, Fallbrook Union Elementary",Fallbrook Union Elementary,693.0,0.6608946608946609,74683.0,97283.0,88.9,5203.0,11.1,1920.0,39103.0,6018.0,4277.0,6935.0,5320.0,47.3,0.00358028795744572,436,46239,0.04152338934665542,0.26546832760224054,0.43044724150608793,0.33020610307316334,0.009429269664136335,2
248,Elementary,33.387442,-117.22413,"1835 Gum Tree Lane,Fallbrook,CA,92028",92028,"William H. Frazier Elementary, Fallbrook Union Elementary",Fallbrook Union Elementary,614.0,0.7068403908794788,74683.0,97283.0,88.9,5203.0,11.1,1920.0,39103.0,6018.0,4277.0,6935.0,5320.0,47.3,0.00358028795744572,436,46239,0.04152338934665542,0.26546832760224054,0.43044724150608793,0.33020610307316334,0.009429269664136335,2
249,High School,33.351956,-117.23611,"2208 South Stage Coach Lane,Fallbrook,CA,92028",92028,"Oasis High (Alternative), Fallbrook Union High",Fallbrook Union High,108.0,0.48148148148148145,74683.0,97283.0,88.9,5203.0,11.1,1920.0,39103.0,6018.0,4277.0,6935.0,5320.0,47.3,0.00358028795744572,436,46239,0.04152338934665542,0.26546832760224054,0.43044724150608793,0.33020610307316334,0.009429269664136335,2
250,High School,33.349505,-117.24137,"2400 South Stage Coach Lane,Fallbrook,CA,92028",92028,"Fallbrook High, Fallbrook Union High",Fallbrook Union High,2138.0,0.6749298409728719,74683.0,97283.0,88.9,5203.0,11.1,1920.0,39103.0,6018.0,4277.0,6935.0,5320.0,47.3,0.00358028795744572,436,46239,0.04152338934665542,0.26546832760224054,0.43044724150608793,0.33020610307316334,0.009429269664136335,2
